{"took":6,"timed_out":false,"_shards":{"total":5,"successful":5,"failed":0},"hits":{"total":329,"max_score":1,"hits":[{"_index":"restaurants","_type":"restaurant","_id":"AVrW5SljBle0pb0VmrFX","_score":1,"_source":{"category":"Deli \/ Bodega","name":"Royal 98","url":"","phone":"","location":{"lat":52.373361,"lon":4.893491},"address":""}},{"_index":"restaurants","_type":"restaurant","_id":"AVrW5SnABle0pb0VmrFr","_score":1,"_source":{"category":"Deli \/ Bodega","name":"Vincent Kaas & Vlees","url":"","phone":"+31206393559","location":{"lat":52.372959541706,"lon":4.9000096321106},"address":"Nieuwmarkt 6"}},{"_index":"restaurants","_type":"restaurant","_id":"AVrW5SoRBle0pb0VmrF6","_score":1,"_source":{"category":"Deli \/ Bodega","name":"Vinnies","url":"http:\/\/www.vinniesdeli.nl","phone":"+31207713086","location":{"lat":52.380118284599,"lon":4.8927730321884},"address":"Haarlemmerstraat 46"}},{"_index":"restaurants","_type":"restaurant","_id":"AVrW5SpIBle0pb0VmrGF","_score":1,"_source":{"category":"Dessert Shop","name":"Sweetella","url":"http:\/\/www.sweetella.nl","phone":"+31203637750","location":{"lat":52.375409,"lon":4.898137},"address":"Warmoesstraat 55HS"}},{"_index":"restaurants","_type":"restaurant","_id":"AVrW5SpZBle0pb0VmrGH","_score":1,"_source":{"category":"Ice Cream Shop","name":"Dolce & Gelato","url":"","phone":"","location":{"lat":52.374646,"lon":4.896964},"address":""}},{"_index":"restaurants","_type":"restaurant","_id":"AVrW5Sp2Ble0pb0VmrGO","_score":1,"_source":{"category":"Frozen Yogurt Shop","name":"Yoghurt Barn","url":"http:\/\/yoghurtbarn.nl","phone":"","location":{"lat":52.378533138661,"lon":4.8995644416254},"address":"Stationsplein 17B"}},{"_index":"restaurants","_type":"restaurant","_id":"AVrW5SrQBle0pb0VmrGf","_score":1,"_source":{"category":"Dessert Shop","name":"Betty Blue","url":"http:\/\/www.bettyblueamsterdam.nl","phone":"+31208100924","location":{"lat":52.370537744706,"lon":4.9008818757765},"address":"Snoekjessteeg 1-3"}},{"_index":"restaurants","_type":"restaurant","_id":"AVrW5StWBle0pb0VmrG6","_score":1,"_source":{"category":"Caf\u00e9","name":"Winkel 43","url":"http:\/\/www.winkel43.nl","phone":"+31206230223","location":{"lat":52.379103162946,"lon":4.8863089084625},"address":"Noordermarkt 43"}},{"_index":"restaurants","_type":"restaurant","_id":"AVrW5SzXBle0pb0VmrIA","_score":1,"_source":{"category":"Dutch Restaurant","name":"City Caf\u00e9","url":"","phone":"","location":{"lat":52.376585,"lon":4.905094},"address":""}},{"_index":"restaurants","_type":"restaurant","_id":"AVrW5SzwBle0pb0VmrID","_score":1,"_source":{"category":"Caf\u00e9","name":"Bitcoin Embassy Amsterdam","url":"","phone":"","location":{"lat":52.375264932601,"lon":4.901177795773},"address":"Zeedijk 43"}}]}}