{"food": ["cheesesteak"], "text": "We've been chosen as one of the best burgers in town, thanks @awesomeamsterdam! And what can I say.. This Philly cheesesteak burger really is mind-blowing tastyyyyy!! \ud83c\udf54\ud83d\udca5\ud83d\ude31 Awesome pic by @koningwilko  #phillycheesesteak #hufamsterdam #bestburger #amsterdamburgers #awesomeamsterdam #reguliersdwarsstraat #IAmsterdam #amsterdamfood", "locationName": "Bar Huf, Amsterdam", "coordinate": {"lat": "52.3665199", "lng": "4.8908572"}, "locationId": "832376732", "createdTime": 1433506178}
{"food": ["hamburger"], "text": "Hi #bbgfam \ud83d\udc95 This is a #latergram of yesterdays lunch! We cycled around the jordan area and found this absolutely gorgeous place \ud83d\udc46\ud83c\udffc\ud83d\ude0d Pluk - healthy take away - it's located in Reestraat 19 & has so many #organic #cleaneating #healthy choices and it was so tasty. Everything is neatly decorated with such a nice personal touch \ud83c\udf38 You definitely won't regret it. On the picture you see a Bio Hamburger fried in coconut oil with homamade sweet potato fries \ud83c\udf54 Could it possibly get any better on a friday afternoon\u2049\ufe0f Have a wonderful day sweeties \ud83d\ude18 Xoxo Noemi & Nora \ud83d\udc6d #kaylasarmy #kaylaitsines #nevergiveup #noexcuses #amsterdamfood #amsterdam #toned #travel #cleanchoices #eatclean #eatforabs #earnyourbody #eatbetternotless #hamburger #soulfood #foodporn #instafit #fitfood #bikinibodyguide #bbg #bbgfamily #abs #arms #passion", "locationName": "Pluk Amsterdam", "coordinate": {"lat": "52.3724414216", "lng": "4.88374529202"}, "locationId": "748844870", "createdTime": 1433572888}
{"food": ["coffee"], "text": "Late Sunday Mornings are for good coffee and amusing reads \u2615\ufe0f. #coffee #magazines #terras #french #brasserie #amsterdam #amsterdamfood #barbreitner #brasseriebreitner", "locationName": "Bar Breitner", "coordinate": {"lat": "52.3802", "lng": "4.87276"}, "locationId": "404883523", "createdTime": 1433671066}
{"food": ["steak tartare"], "text": "I can't stop looking at this divine, mouth-watering steak tartare Masterpiece. Great shot @jasmijnengering, thank you\ud83d\udc4c! #brasseriebreitner #masterpiece #divine #amsterdamfood #steaktartaar #foodporn #brasserie #barbreitner #amsterdamwest #thankyouamsterdam", "locationName": "Bar Breitner", "coordinate": {"lat": "52.3802", "lng": "4.87276"}, "locationId": "404883523", "createdTime": 1433849052}
{"food": ["pie", "coffee", "cheesecake"], "text": "Cup Of Joe And Some Pie #coffee #capuccino #cheesecake #food #foodporn #instafood #amsterdam #amsterdamfood", "locationName": "Koffie Academie", "coordinate": {"lat": "52.3624077", "lng": "4.8748045"}, "locationId": "485188845", "createdTime": 1433856548}
{"food": ["waffle"], "text": "\ud83d\udc1f \u25a1 Fresh Dutch Waffle \u25a0 @ Zaanse Schans, Amsterdam \u25a1 \u20ac2.00 \u25a0 This freshly made Dutch waffle was warmly served with syrup-like stuffing filling between the two thin slices of waffle.  #fresh #dutch #waffle #Amsterdam #holland #netherlands #Amsterdamfood #dessert #dessertlover #sweet #hkfood #hkfoodies #hkfood #foodie #foodies #foodlover #foodstagram #instafood #foodporn #yum #nomnom #hkiger #igers #igersdaily #hkig", "locationName": "Zaanse Schans- A Windmill Village", "coordinate": {"lat": "52.3547994206", "lng": "4.88250103847"}, "locationId": "233068854", "createdTime": 1434027414}
{"food": ["waffle"], "text": "\ud83d\udc1f \u25a1 Fresh Dutch Waffle \u25a0 @ Zaanse Schans, Amsterdam \u25a1 \u20ac2.00 \u25a0 This freshly made Dutch waffle was warmly served with syrup-like stuffing filling between the two thin slices of waffle.  #fresh #dutch #waffle #Amsterdam #holland #netherlands #Amsterdamfood #dessert #dessertlover #sweet #hkfood #hkfoodies #hkfood #foodie #foodies #foodlover #foodstagram #instafood #foodporn #yum #nomnom #hkiger #igers #igersdaily #hkig", "locationName": "Zaanse Schans- A Windmill Village", "coordinate": {"lat": "52.3547994206", "lng": "4.88250103847"}, "locationId": "233068854", "createdTime": 1434027414}
{"food": ["ramen", "soup"], "text": "#fbf to this \"Wagamama Ramen\" we had at the preview opening of Wagamama Central Station Amsterdam! \ud83c\udf5c\ud83c\udf5c\ud83c\udf5c #wagamama #wagamamaamsterdam #noodlesoup #ramen #japanesefood #asianfood #soup #noodles #grilledchicken #pork #shrimps #eggs #misosoup #chikuwa #mussels #food #amsterdamfood #bbqpork #foodie #foodblog #blogger #foodporn #ramennoodles #tippedbylea", "locationName": "Wagamama", "coordinate": {"lat": "52.36252", "lng": "4.88312"}, "locationId": "17398", "createdTime": 1434141183}
{"food": ["waffle", "ice cream"], "text": "\ud83d\udc1f \u25a1 Waffle with Hazelnut Ice Cream \u25a0 Metropolitan @ Amsterdam \u25a1 \u20ac3.00 \u25a0 The waffle was reheated once you had ordered and you could choose the flavour of the ice cream. yummmmm #metropolitan #belgium #waffle #amsterdam #holland #netherlands #amsterdamfood #dessert #dessertlover #sweet #hkfood #hkfoodies #hkfood #foodie #foodies #foodlover #foodstagram #instafood #foodporn #yum #nomnom #hkiger #igers #igersdaily #hkig", "locationName": "Metropolitan Waffles", "coordinate": {"lat": "52.3739043313", "lng": "4.8960456351"}, "locationId": "329972448", "createdTime": 1434152784}
{"food": ["chocolate"], "text": "Dutch chocolate #arthoteldulac #chocolate #dutch #amsterdamfood #haarlemmerstraat #amsterdam", "locationName": "Art Hotel Dulac", "coordinate": {"lat": "52.38095", "lng": "4.89043"}, "locationId": "5798799", "createdTime": 1434203898}
{"food": ["hummus"], "text": "Yummy food at a new Houmous Cafe/bistro.  Try the Shakshuka eggs and Labneh. Very popular. You may need to queue!  #amsterdamfood #amsterdam #houmous #hummus #westerstraat #hummusbistro #amsterdambistro #amsterdamcafe", "locationName": "Hummus bistro d&a", "coordinate": {"lat": "52.3784676", "lng": "4.8826461"}, "locationId": "783454344", "createdTime": 1434205346}
{"food": ["baguette", "quiche", "coffee"], "text": "Sunday, Brunch Day! Croques and Baguettes served until the late afternoon. #brunchtime #frenchbreakfast #croquemonsieur #baguette #quiche #coffee #tartetatin #amsterdamwest #amsterdamfood #brasserie #barbreitner #brasseriebreitner", "locationName": "Bar Breitner", "coordinate": {"lat": "52.3802", "lng": "4.87276"}, "locationId": "404883523", "createdTime": 1434271955}
{"food": ["bouillabaisse"], "text": "Bouillabaisse \u00e0 la Marseillaise with rouille and Gruy\u00e8re #bouillabaisde #vissoep #fishsoup #gamba #rouille #gruyerecheese #gruyerekaas #instarestaurant #instadaily #instaday #instaphoto #instafood #foodie #amsterdam #amsterdamfood #amsterdamrestaurant #bistrotneuf #bistrotneufamsterdam #frenchkitchen #french #cuisine #culinary #culinair #haarlemmerstraat #amsterdamcenter #amsterdamcentrum", "locationName": "Bistrot Neuf", "coordinate": {"lat": "52.3793706142", "lng": "4.89377611097"}, "locationId": "1414280", "createdTime": 1434535205}
{"food": ["coleslaw"], "text": "Meat And Potato Evening #RibEye #steak #Baked #Potato #Herb #cremefraiche #Coleslaw #Bearnaise #sauce #food #foodporn #instafood #amsterdam #amsterdamfood #diner #excellent #foodie #foodiegram #foodgram #TheRoastRoom", "locationName": "THE ROAST ROOM", "coordinate": {"lat": "52.3433512", "lng": "4.8905854"}, "locationId": "526403881", "createdTime": 1434656944}
{"food": ["tarte tatin"], "text": "Some gorgeous little tarts from \"Petit G\u00e2teau\" @foodhallen my favourite has to be the \"tarte tatin\" \ud83d\ude0b\ud83d\udc4c #iamsterdam #foodhallen #petitg\u00e2teau #amsterdam #amsterdamfood #amsterdamtrip #amsterdamspots #sweettreats #tarts #tartetatin #foodporn #instafood #igpics #igers #igaddict #ilovefood #culinaryadventure #allwedidwaseat #food #foodstagram #foodiepics #stuandkatesfoodadventure", "locationName": "Foodhallen Amsterdam", "coordinate": {"lat": "52.36747", "lng": "4.86788"}, "locationId": "567010992", "createdTime": 1434718600}
{"food": ["sandwich"], "text": "Awesome awesome B\u00e1nh m\u00ec sandwich from @vietview in the @foodhallen, I could of spent hrs in this place just grazing away it's foodie heaven, absolutely amazing\ud83d\udc4c #banhmi #vietview #foodhallen #foodiepics #ilovefood #amsterdam #amsterdamfood #culinaryadventure #allwedidwaseat #foodporn #streetfood #amazing #tasty #igers #igaddict #instafood #picoftheday #picstagram #amsterdamtrip #amsterdamspots #food #foodiepics #foodstagram #instaholiday #stuandkatesfoodadventure", "locationName": "Foodhallen Amsterdam", "coordinate": {"lat": "52.36747", "lng": "4.86788"}, "locationId": "567010992", "createdTime": 1434719536}
{"food": ["sandwich"], "text": "Awesome awesome B\u00e1nh m\u00ec sandwich from @vietview in the @foodhallen, I could of spent hrs in this place just grazing away it's foodie heaven, absolutely amazing\ud83d\udc4c #banhmi #vietview #foodhallen #foodiepics #ilovefood #amsterdam #amsterdamfood #culinaryadventure #allwedidwaseat #foodporn #streetfood #amazing #tasty #igers #igaddict #instafood #picoftheday #picstagram #amsterdamtrip #amsterdamspots #food #foodiepics #foodstagram #instaholiday #stuandkatesfoodadventure", "locationName": "Foodhallen Amsterdam", "coordinate": {"lat": "52.36747", "lng": "4.86788"}, "locationId": "567010992", "createdTime": 1434719536}
{"food": ["stroopwafel"], "text": "Hidden within Albert Cuyp Market in Amsterdam is this deliciously chewy stroopwafel made fresh daily by a street vendor! | \ud83d\udccdAmsterdam", "locationName": "Albert Cuyp Market", "coordinate": {"lat": "52.356111", "lng": "4.896944"}, "locationId": "215250746", "createdTime": 1434745325}
{"food": ["salad"], "text": "Tonight's special starter is a delicious fresh Pulpo Salad with romaine lettuce, chickpeas and green peas. Very tasty combined with an orange garnished gin-tonic.  Sant\u00e9 to Sunday!  #barbreitner #saladepulpo #salad #chickpeas #gintonic #chanel #amsterdamfood #amsterdamwest #brasserie #breitner", "locationName": "Bar Breitner", "coordinate": {"lat": "52.3802", "lng": "4.87276"}, "locationId": "404883523", "createdTime": 1434885564}
{"food": ["pie", "apple pie", "whipped cream"], "text": "| Dutch Apple Pie |  This is definitely worth trying! The apple pie is filled with apple bites and it tastes sweet. Serving it with whipped cream makes the pie more delicious.  If you're visiting Amsterdam, you must not miss this!", "locationName": "Caf\u00e9 Winkel 43", "coordinate": {"lat": "52.3789987708", "lng": "4.88641616586"}, "locationId": "7965901", "createdTime": 1435050197}
{"food": ["toffee", "pie"], "text": "Sicke sticky toffee pie \ud83d\ude0d\ud83d\ude4f\ud83d\ude4c #brasserievlaming #amsterdamfood #amsterdam", "locationName": "Restaurant Vlaming eten & drinken", "coordinate": {"lat": "52.3802427663", "lng": "4.88454581691"}, "locationId": "250063483", "createdTime": 1435097545}
{"food": ["cheesecake"], "text": "And for dessert.. Liquid Cheesecake and a Dark and Stormy \ud83c\udf78\ud83d\udc80\ud83d\udc45\ud83c\udf82. #liquiddessert #cocktails #darkandstormy #cheesecake #barhuf #reguliersdwarsstraat #amsterdamfood", "locationName": "Bar Huf, Amsterdam", "coordinate": {"lat": "52.3665199", "lng": "4.8908572"}, "locationId": "832376732", "createdTime": 1435263572}
{"food": ["sourdough", "toast"], "text": "Potato \"marrow bone\" with veal tartare and cr\u00e8me fra\u00eeche, topped with sourdough toast with bone marrow and caviar, served on oxtail jelly #2michelinstars #michelinstars #amsterdamfood #lefooding @lefooding #elizabethnetherlands", "locationName": "Bord'Eau Restaurant Gastronomique", "coordinate": {"lat": "52.3674426216", "lng": "4.89391657296"}, "locationId": "224317620", "createdTime": 1435344007}
{"food": ["ceviche"], "text": "Tuna ceviche and #mojito \ud83d\ude4c#amsterdam#awesome#amsterdamfood#instafood#latergram#foodgasm#inlove with that #amazingplace#drinks#summer arrived \ud83c\udf1e", "locationName": "Rose's Cantina", "coordinate": {"lat": "52.3662520107", "lng": "4.89115222217"}, "locationId": "1367301", "createdTime": 1435419952}
{"food": ["ceviche"], "text": "Tuna ceviche and #mojito \ud83d\ude4c#amsterdam#awesome#amsterdamfood#instafood#latergram#foodgasm#inlove with that #amazingplace#drinks#summer arrived \ud83c\udf1e", "locationName": "Rose's Cantina", "coordinate": {"lat": "52.3662520107", "lng": "4.89115222217"}, "locationId": "1367301", "createdTime": 1435419952}
{"food": ["kas", "chocolate"], "text": "The Duchess is located opposite of the W Hotel and housed in the old KAS Bank Building it is beautifully done! Service is a little American, with the 'Hi, my name is Peter and I am your host for tonight', but it is prompt, friendly and spot on!  The food not only tickles your tastebuds, several dishes have some form of spectacular table preparation. If you are a chocolate fan: try the chocolate explosion. And if you don't want to be wheeled out at the end of your dinner: share it! We think The Duchess is gonna be a beloved, young acting, golden oldie in Amsterdam. \u2014\u2014\u2014\u2014\u2014\u2014\u2014\u2014\u2014\u2014\u2014\u2014\u2014\u2014\u2014\u2014\u2014\u2014\u2014\u2014\u2014\u2014\u2014 Food \u2b50\ufe0f\u2b50\ufe0f\ufe0f\u2b50\ufe0f\u2b50\ufe0f Service \u2b50\ufe0f\u2b50\ufe0f\u2b50\ufe0f\u2b50\ufe0f Ambiance \u2b50\ufe0f\u2b50\ufe0f\u2b50\ufe0f\u2b50\ufe0f \u2014\u2014\u2014\u2014\u2014\u2014\u2014\u2014\u2014\u2014\u2014\u2014\u2014\u2014\u2014\u2014\u2014\u2014\u2014\u2014\u2014\u2014\u2014 #restaurant #lunch #dinner #theduchess #kasbank #whotels #spuistraat #amsterdam  #amsterdamrestaurants #amsterdamfood #food #proefwerk #foodstagram", "locationName": "THE DUCHESS", "coordinate": {"lat": "52.37283", "lng": "4.88941"}, "locationId": "681650995", "createdTime": 1435437973}
{"food": ["kas", "chocolate"], "text": "The Duchess is located opposite of the W Hotel and housed in the old KAS Bank Building it is beautifully done! Service is a little American, with the 'Hi, my name is Peter and I am your host for tonight', but it is prompt, friendly and spot on!  The food not only tickles your tastebuds, several dishes have some form of spectacular table preparation. If you are a chocolate fan: try the chocolate explosion. And if you don't want to be wheeled out at the end of your dinner: share it! We think The Duchess is gonna be a beloved, young acting, golden oldie in Amsterdam. \u2014\u2014\u2014\u2014\u2014\u2014\u2014\u2014\u2014\u2014\u2014\u2014\u2014\u2014\u2014\u2014\u2014\u2014\u2014\u2014\u2014\u2014\u2014 Food \u2b50\ufe0f\u2b50\ufe0f\ufe0f\u2b50\ufe0f\u2b50\ufe0f Service \u2b50\ufe0f\u2b50\ufe0f\u2b50\ufe0f\u2b50\ufe0f Ambiance \u2b50\ufe0f\u2b50\ufe0f\u2b50\ufe0f\u2b50\ufe0f \u2014\u2014\u2014\u2014\u2014\u2014\u2014\u2014\u2014\u2014\u2014\u2014\u2014\u2014\u2014\u2014\u2014\u2014\u2014\u2014\u2014\u2014\u2014 #restaurant #lunch #dinner #theduchess #kasbank #whotels #spuistraat #amsterdam #bresaola #fennelseed  #amsterdam  #amsterdamrestaurants #amsterdamfood #food #proefwerk #foodstagram", "locationName": "THE DUCHESS", "coordinate": {"lat": "52.37283", "lng": "4.88941"}, "locationId": "681650995", "createdTime": 1435444600}
{"food": ["kas", "chocolate"], "text": "The Duchess is located opposite of the W Hotel and housed in the old KAS Bank Building it is beautifully done! Service is a little American, with the 'Hi, my name is Peter and I am your host for tonight', but it is prompt, friendly and spot on!  The food not only tickles your tastebuds, several dishes have some form of spectacular table preparation. If you are a chocolate fan: try the chocolate explosion. And if you don't want to be wheeled out at the end of your dinner: share it! We think The Duchess is gonna be a beloved, young acting, golden oldie in Amsterdam. \u2014\u2014\u2014\u2014\u2014\u2014\u2014\u2014\u2014\u2014\u2014\u2014\u2014\u2014\u2014\u2014\u2014\u2014\u2014\u2014\u2014\u2014\u2014 Food \u2b50\ufe0f\u2b50\ufe0f\ufe0f\u2b50\ufe0f\u2b50\ufe0f Service \u2b50\ufe0f\u2b50\ufe0f\u2b50\ufe0f\u2b50\ufe0f Ambiance \u2b50\ufe0f\u2b50\ufe0f\u2b50\ufe0f\u2b50\ufe0f \u2014\u2014\u2014\u2014\u2014\u2014\u2014\u2014\u2014\u2014\u2014\u2014\u2014\u2014\u2014\u2014\u2014\u2014\u2014\u2014\u2014\u2014\u2014 #restaurant #lunch #dinner #theduchess #kasbank #whotels #spuistraat #amsterdam #bresaola #fennelseed  #amsterdam  #amsterdamrestaurants #amsterdamfood #food #proefwerk #foodstagram", "locationName": "THE DUCHESS", "coordinate": {"lat": "52.37283", "lng": "4.88941"}, "locationId": "681650995", "createdTime": 1435444600}
{"food": ["burrito"], "text": "Burrito & Lemonade #Burrito #Lemonade #simplefood #fastfood #fresh #food #foodie #foodporn #amsterdamfood #amsterdam #truecooks #truechefs #avocado #gaugamole #beef #beans #rice #cheese #salsa #corn #tomato #SimpleFood", "locationName": "SALSA SHOP", "coordinate": {"lat": "52.3577277977", "lng": "4.89097595215"}, "locationId": "298511478", "createdTime": 1435514542}
{"food": ["fresca", "guacamole"], "text": "Eggstatic is on tour! Will be sharing my meals around Europe with you for the next month. Obsessed with @coffeecoconuts in Amsterdam. Rock away tacos with beef, pico de gallo , salsa fresca and guac #amsterdam #ctcoffeeandcoconuts #coffeecoconuts #lunch #travel #foodtravel #foodinamsterdam #guacamole #mexican #eggstaticaboutfoodontour", "locationName": "C \u2022 T  coffee & coconuts", "coordinate": {"lat": "52.3527045905", "lng": "4.89141715443"}, "locationId": "434784699", "createdTime": 1435643102}
{"food": ["soup", "korma", "jeera rice"], "text": "DINNER DINNER DINNER  STARTS TONIGHT 18:00 UNTIL 22:00  Our terrace is open to you all from 18:00 until 22:00 for dinner! \u00b7Carrot, shallot and orange soup with cumin, mint yoghurt \u00b7Baby fried squid with lime and wakame \u00b7Chicken korma with jeera rice, watercress, coriander, toasted almonds and chapatti (veg option available) \u00b7Bavette skewer with portobello, peppers, red onion and chimichurri with wedges (veg skewer with Haloumi) \u00b7  Tiger prawns, water & cantaloupe melon and rocket with ginger, chili and lime dressing  #dinner #whatsfordinner #amsterdam #food #dinnersuggestion #goodfood #whattodoinamsterdam #englishtearoom #goodfood #oysters #amsterdamfood #canalhouse #restaurant #greenwoodsgastro #canalsideterrace #eveningsun", "locationName": "Greenwoods Keizersgracht", "coordinate": {"lat": "52.365928761", "lng": "4.88670685394"}, "locationId": "868313", "createdTime": 1435656781}
{"food": ["bread"], "text": "late lunch in Amsterdam // amazing home made grain bread topped with goats cheese, rocket and toasted nuts & seeds, drizzled with honey! #sandwichheaven #wholefoods #vegetarianfood #wholegrains #goatscheese #amsterdamfood #travel", "locationName": "Friday Next Concept Store, Caf\u00e9 & Studio", "coordinate": {"lat": "52.36324", "lng": "4.87747"}, "locationId": "245158366", "createdTime": 1436097986}
{"food": ["waffle"], "text": "\u0427\u0442\u043e \u0435\u0449\u0435 \u043c\u043e\u0436\u043d\u043e \u0441\u044a\u0435\u0441\u0442\u044c \u0432 \u0410\u043c\u0441\u0442\u0435\u0440\u0434\u0430\u043c\u0435 \u043d\u0430 \u0445\u043e\u0434\u0443. . #streetfood #amsterdamfood #Yummy #waffle #doner #frozenyogurt #foodporn #foodphoto #albertcuypmarkt #foodstagram #instafood", "locationName": "Amsterdam Street", "coordinate": {"lat": "52.3652950775", "lng": "4.88434049383"}, "locationId": "496929261", "createdTime": 1436341511}
{"food": ["bubblegum", "chocolate", "white chocolate"], "text": "I may or may not have licked my icecream before I took this picture..\ud83d\ude4a But how can one resist bubblegum or white chocolate icecream..\ud83c\udf67 www.hotspot-hunter.com", "locationName": "Monte Pelmo ijs", "coordinate": {"lat": "52.3774484943", "lng": "4.88164782292"}, "locationId": "2467277", "createdTime": 1436541484}
{"food": ["porridge"], "text": "A day in Amsterdam part II: First course of my lunch at Scandinavian Embassy. Blueberry apple porridge with goat yoghurt.  #amsterdamunfolded #scandinavianembassy #lunch #amsterdamfood", "locationName": "Scandinavian Embassy", "coordinate": {"lat": "52.3534230466", "lng": "4.89438139389"}, "locationId": "223196026", "createdTime": 1436542047}
{"food": ["pie", "apple pie"], "text": "Love this cafe! Wish I had time to try their lunch menu but the famous Dutch apple pie will have to do for now! \ud83d\udc4d\ud83c\udffc\ud83d\udc40\ud83d\ude0d", "locationName": "Singel 404", "coordinate": {"lat": "52.3688169715", "lng": "4.8878386967"}, "locationId": "1130541", "createdTime": 1436894863}
{"food": ["chutney", "coleslaw"], "text": "Crab Burger with mango chutney and a wasabi-mayo coleslaw is what you want to eat tonight.\ud83d\udd25\ud83d\ude40 Hope it was a good first @lissazombie! #crabburger #mangochutney #reguliersdwarsstraat #amsterdamfood #amsterdam #barhuf", "locationName": "Bar Huf, Amsterdam", "coordinate": {"lat": "52.3665199", "lng": "4.8908572"}, "locationId": "832376732", "createdTime": 1437152891}
{"food": ["pho"], "text": "Delicious dinner\ud83c\udf5c\ud83d\udc4c\ud83c\udffc\ud83c\uddf3\ud83c\uddf1 #delicious #dinner #salat #chicken #soya #chili #pho91 #amsterdamfood #foodie #amsterdam #vacation", "locationName": "Pho 91", "coordinate": {"lat": "52.3551755828", "lng": "4.89115536286"}, "locationId": "297326188", "createdTime": 1437162315}
{"food": ["coffee", "cappuccino"], "text": "Breakfast and coffee\u2615\ufe0f #breakfast #cappuccino #granola #blueberri #ctcoffee&coconuts #amsterdamfood #foodie #amsterdam #vacation", "locationName": "C \u2022 T  coffee & coconuts", "coordinate": {"lat": "52.3527045905", "lng": "4.89141715443"}, "locationId": "434784699", "createdTime": 1437211311}
{"food": ["tapas"], "text": "Listen to that sound: sfrrrrrr . . #patanegra #ajillo #gambasajillo #foodstagram #foodgasm #foodporn #food #gambas #gamba #amsterdamfood #sizzling #amsterdam #seafood #prawns #shrimps #delicious #garlic #knoflook #spanish #iberic #hot #igersamsterdam #hungry #sfrrr #tapas", "locationName": "Pata Negra 2", "coordinate": {"lat": "52.3605005839", "lng": "4.92517155847"}, "locationId": "1352433", "createdTime": 1437238009}
{"food": ["kebab"], "text": "Dinner in colours\ud83d\udc4c\ud83c\udffc #dinnertime #tasty #kebab #lamb #colours #bazar #amsterdamfood #foodie #amsterdam #vacation #summer", "locationName": "Bazar", "coordinate": {"lat": "52.3558", "lng": "4.89517"}, "locationId": "852081", "createdTime": 1437251367}
{"food": ["pizza"], "text": "Also; YUMMY PIZZA! Right from a bigass cute oven burning with wood #steenoven #pizza #amsterdam #amsterdamfood #daportarevia #daportarevia_pizza #food #foodismylove #vegetarian #vegeamsterdam #greenasparagus #goatcheese #yummy #sanpellegrino #foodporn", "locationName": "Daportarevia", "coordinate": {"lat": "52.3749821945", "lng": "4.89869221086"}, "locationId": "607377059", "createdTime": 1437253992}
{"food": ["cake", "cappuccino", "coffee", "crumble"], "text": "Cake lovers #cake #carrotcake #carrot #applecrumble #cappuccino #cafe #break #coffeebreak #coffee #applecrumble #crumble #greenwoods #Amsterdam #amsterdamfood #instafood #foodporn", "locationName": "Greenwoods Keizersgracht", "coordinate": {"lat": "52.365928761", "lng": "4.88670685394"}, "locationId": "868313", "createdTime": 1437315720}
{"food": ["pasta"], "text": "Pasta-night\ud83c\udf5d #dinner #pasta #salmon #tomato #spinach #whitewine #pastapasta #amsterdamfood #foodie #amsterdam", "locationName": "Pasta Pasta Amsterdam", "coordinate": {"lat": "52.3547344252", "lng": "4.89045458613"}, "locationId": "255471926", "createdTime": 1437330947}
{"food": ["coffee"], "text": "Monday breakfast and coffee\ud83c\uddf3\ud83c\uddf1\u2615\ufe0f\ud83c\udf53 #breakfast #coffee #yoghurt #granola #blueberries #strawberries #bakersandroasters #amsterdamfood #foodie #amsterdam #vacation", "locationName": "Bakers & Roasters", "coordinate": {"lat": "None", "lng": "None"}, "locationId": "83408589", "createdTime": 1437386357}
{"food": ["baguette"], "text": "Pre-dinner snacking! #charcuterie #wine #baguette #goodlife #amsterdamfood", "locationName": "Bar Breitner", "coordinate": {"lat": "52.3802", "lng": "4.87276"}, "locationId": "404883523", "createdTime": 1437497447}
{"food": ["sorbet", "chocolate"], "text": "#bordeau 2 #michelinstar #apple ... Cover is made with plum sugar .. Middle is lemon #sorbet .. Seeds are dark #chocolate  #amsterdamfood #dessert #foodie #gastroart", "locationName": "Canal view", "coordinate": {"lat": "52.36694", "lng": "4.89424"}, "locationId": "397544169", "createdTime": 1437646171}
{"food": ["croissant", "yogurt"], "text": "Ham and cheese croissant, almond croissant and yogurt with fresh granola// YUMMM\ud83d\ude1b #amsterdam #amsterdamfood #breakfastofchampions #breakfasttime #yogurtparfait #cheeseandham #almondcroissant #netherlands #foodstagram #happytime #happysunday", "locationName": "Bakhuys", "coordinate": {"lat": "52.36109", "lng": "4.90685"}, "locationId": "238689701", "createdTime": 1437904017}
{"food": ["ceviche"], "text": "Bistro Noord is set in quite a despicable building at the NDSM dock. But don't let the exterior fool you. The kitchen is good and the staff is very friendly and -unfortunately worth mentioning in Amsterdam- know what they are talking about. We drank a beautiful Hungarian white Furmint and had great dishes. Forget about the 99th Loetje and visit the TePasBrothers! \u2014\u2014\u2014\u2014\u2014\u2014\u2014\u2014\u2014\u2014\u2014\u2014\u2014\u2014\u2014\u2014\u2014\u2014\u2014\u2014\u2014\u2014\u2014 Food \u2b50\ufe0f\u2b50\ufe0f\u2b50\ufe0f\u2b50\ufe0f Service \u2b50\ufe0f\u2b50\ufe0f\u2b50\ufe0f\u2b50\ufe0f Ambiance \u2b50\ufe0f\u2b50\ufe0f\u2b50\ufe0f\ufe0f\ufe0f\ufe0f\ufe0f\ufe0f \u2014\u2014\u2014\u2014\u2014\u2014\u2014\u2014\u2014\u2014\u2014\u2014\u2014\u2014\u2014\u2014\u2014\u2014\u2014\u2014\u2014\u2014\u2014 #restaurant #amsterdam #lunch #dinner #amsterdamrestaurants #amsterdamfood #food  #bistronoord #bistro #amsterdamnoord #TePasbrothers #hungarian #white #wine #gamba #ceviche", "locationName": "Bistro Noord", "coordinate": {"lat": "52.4001694", "lng": "4.8925099"}, "locationId": "348267827", "createdTime": 1437941478}
{"food": ["curry", "sandwich"], "text": "Organic chicken curry masala sandwich with pickled cucumber, red onion & coriander. #delicious #porkbellypolice #amsterdamfood", "locationName": "Vinnies Amsterdam", "coordinate": {"lat": "52.3800600234", "lng": "4.89276735487"}, "locationId": "27335221", "createdTime": 1438089023}
{"food": ["curry", "sandwich"], "text": "Organic chicken curry masala sandwich with pickled cucumber, red onion & coriander. #delicious #porkbellypolice #amsterdamfood", "locationName": "Vinnies Amsterdam", "coordinate": {"lat": "52.3800600234", "lng": "4.89276735487"}, "locationId": "27335221", "createdTime": 1438089023}
{"food": ["cornbread"], "text": "Bistro Noord is set in quite a despicable building at the NDSM dock. But don't let the exterior fool you. The kitchen is good and the staff is very friendly and -unfortunately worth mentioning in Amsterdam- know what they are talking about. We drank a beautiful Hungarian white Furmint and had great dishes. Forget about the 99th Loetje and visit the TePasBrothers! \u2014\u2014\u2014\u2014\u2014\u2014\u2014\u2014\u2014\u2014\u2014\u2014\u2014\u2014\u2014\u2014\u2014\u2014\u2014\u2014\u2014\u2014\u2014 Food \u2b50\ufe0f\u2b50\ufe0f\u2b50\ufe0f\u2b50\ufe0f Service \u2b50\ufe0f\u2b50\ufe0f\u2b50\ufe0f\u2b50\ufe0f Ambiance \u2b50\ufe0f\u2b50\ufe0f\u2b50\ufe0f\ufe0f\ufe0f\ufe0f\ufe0f\ufe0f \u2014\u2014\u2014\u2014\u2014\u2014\u2014\u2014\u2014\u2014\u2014\u2014\u2014\u2014\u2014\u2014\u2014\u2014\u2014\u2014\u2014\u2014\u2014 #restaurant #amsterdam #lunch #dinner #amsterdamrestaurants #amsterdamfood #food  #bistronoord #bistro #amsterdamnoord #TePasbrothers #hungarian #white #wine #texassmoker #blackangus #brisket #cornbread #menfood #roar", "locationName": "Bistro Noord", "coordinate": {"lat": "52.4001694", "lng": "4.8925099"}, "locationId": "348267827", "createdTime": 1438203418}
{"food": ["bread", "toast", "french toast"], "text": "Brunch time- Banana Nut Bread French Toast with bacon \ud83d\ude0b#amsterdambrunch #europefood #amsterdamfood #brunch #breakfast #travelfoodie #food #eeeeeats #frenchtoast #traveleats #bakersandroasters #amsterdam #letsbrunch #amsterdamcity #amsterdamlife #amsterdamtrip #bacon #carbs #amsterdamdepijp #eatinthroughnyc #eatinthroughnycgoestoamsterdam", "locationName": "Bakers & Roasters", "coordinate": {"lat": "None", "lng": "None"}, "locationId": "83408589", "createdTime": 1438334509}
{"food": ["salad"], "text": "Gezellig bijkletsen en lekker lunchen! \u2764\ufe0f\ud83d\ude0b @pamlovespeanutbutter @juiceandsalad #saladbar #juiceandsalad #salad #mango #mangojuice #juice #healthyfood #healthy #eatclean #cleaneating #amsterdam #amsterdamfood #freshfoods #goodlife #healthylife", "locationName": "JUICE & SALAD", "coordinate": {"lat": "52.3640199", "lng": "4.8741"}, "locationId": "17594776", "createdTime": 1438434901}
{"food": ["ravioli", "pasta", "pistou"], "text": "#ravioli#taleggio#ricotta#bolo #amsterdam #amsterdamfood #food#pasta#cafe#pistou", "locationName": "Caf\u00e9 Pistou", "coordinate": {"lat": "52.3829188", "lng": "4.851043"}, "locationId": "48145875", "createdTime": 1438777520}
{"food": ["stew"], "text": "#DamPlaza #Amsterdam, Netherlands - great Mediterranean sea bass, and veal and mushrooms stew. The beef carpaccio was #tasty too! #food #foodie #nomnom #foodporn #foodgasm #starvingtime #gastropost #yummy #dinner #hungry #seabass #seafood #Hollandeats #fusionfood #amsterdam20 #amsterdamfood #amsterdamfoodie", "locationName": "Restaurant Dam Plaza-DAMPARK CENTRUM", "coordinate": {"lat": "52.373557", "lng": "4.893269"}, "locationId": "622853104", "createdTime": 1438981243}
{"food": ["baguette"], "text": "Sundays are the best, because breakfast is served untill 16.00h \ud83c\udf74\ud83c\udf73. Croque Monsieur, eggs Benedictine, Baguette Steak.. Pick your french classic, it's all there! #frenchstyle #brasserie #amsterdamfood #barbreitner #amsterdamwest #baguette", "locationName": "Bar Breitner", "coordinate": {"lat": "52.3802", "lng": "4.87276"}, "locationId": "404883523", "createdTime": 1439118178}
{"food": ["gnocchi", "spaghetti", "pasta"], "text": "Delizioso pranzo!  #gnocchi #spaghetti #scampi #lunch #pranzo #pasta #pastapasta #amsterdamfood #amsterdam #ferdindbolstraat #italiano", "locationName": "Pasta Pasta", "coordinate": {"lat": "52.3754202551", "lng": "4.89822833005"}, "locationId": "266084237", "createdTime": 1439130542}
{"food": ["sambal"], "text": "Ajam Ritja - Diced boneless chicken in a spicy sauce of tomato and sambal from @restaurantkantjil on Spuistraat in Amsterdamn, Netherlands. #HDScoobySnacks #food #instafood #Boston #BostonFood #foodie #BostonFoodie #foodporn #IndonesianFood #Indonesia #Amsterdam #AmsterdamFood #Netherlands #KantjilEnDeTijger #KantjilDeTijger #chicken #spicy #sambal #tomato #Spuistraat #kantjil", "locationName": "Kantjil & de Tijger", "coordinate": {"lat": "52.3691653", "lng": "4.8888949"}, "locationId": "213808005", "createdTime": 1439241780}
{"food": ["hummus"], "text": "Best hummus in Amsterdam @sirhummus! This authentic Israeli hummus is delicious! If you don't live in Amsterdam: check my website for a recipe to make your own hummus. Hummus galore! #sirhummus #amsterdamfood #amsterdamfoodie #depijp #healthyfoodblog #healthyfood #hummus #healthybrunch #healthylunch #vegetarian #vegan #healthyamsterdam #veganamsterdam #dutchfoodie #hummuslover #foodbloggers #middleeasternfood #amsterdamcityguide #hotspotamsterdam", "locationName": "Sir Hummus", "coordinate": {"lat": "52.35177", "lng": "4.89441"}, "locationId": "555919006", "createdTime": 1439302156}
{"food": ["hummus"], "text": "Best hummus in Amsterdam @sirhummus! This authentic Israeli hummus is delicious! If you don't live in Amsterdam: check my website for a recipe to make your own hummus. Hummus galore! #sirhummus #amsterdamfood #amsterdamfoodie #depijp #healthyfoodblog #healthyfood #hummus #healthybrunch #healthylunch #vegetarian #vegan #healthyamsterdam #veganamsterdam #dutchfoodie #hummuslover #foodbloggers #middleeasternfood #amsterdamcityguide #hotspotamsterdam", "locationName": "Sir Hummus", "coordinate": {"lat": "52.35177", "lng": "4.89441"}, "locationId": "555919006", "createdTime": 1439302156}
{"food": ["salad", "coffee"], "text": "Day 3 - Amsterdam - Sillmacka: (un)traditional Swedish herring salad. Garlic herring, rye & knackebrod and strawberry butter. Amazing modern introduction if you're a little nervous to try pickled herring for the first time. The herring is so delicate in texture and has a mild but distinct flavor. This place has also been awarded Best Concept Coffee in Amsterdam, so a must for coffee lovers. Highly recommend visiting this joint if you're ever in town! #Amsterdam #Netherlands #herring #foodadventures #wanderlust #foodie #seafood #salad #sillmacka #scandanvian #day3 #eurotrip #travel #whattoeatinamsterdam #amsterdamfood", "locationName": "Scandinavian Embassy", "coordinate": {"lat": "52.3534230466", "lng": "4.89438139389"}, "locationId": "223196026", "createdTime": 1439458747}
{"food": ["ice cream", "whipped cream"], "text": "Day 4 - Amsterdam. Saw a line forming in front of this tiny little store and decide to tag along. Best decision! This perfectly white half dome was a combination fresh dense cream and the creamiest ice cream I've ever had. If you've ever indulged in whipped cream straight from the can, this is right down your alley. The store only sells this in one flavor but also has other little pastries available. #amsterdam #eurotrip #day4 #icecream #cream #amsterdamfood #europe #wanderlust #foodie #travel #foodadventures #sosimple", "locationName": "Banketbakkerij Van der Linde", "coordinate": {"lat": "52.3748204319", "lng": "4.89398345578"}, "locationId": "272843946", "createdTime": 1439627781}
{"food": ["pizza", "tartufo"], "text": "Even wachten... Pizza!  #pizza #pazzi #amsterdam #waaramsterdameet #tartufo #ikwilnietoverdrijven #amsterdamfood #menu #typography #latergram", "locationName": "Pazzi", "coordinate": {"lat": "None", "lng": "None"}, "locationId": "437099899", "createdTime": 1439633344}
{"food": ["ravioli"], "text": "Spaghetteria Amsterdam \ud83d\ude0d\ud83c\udf5d Ein echt sch\u00f6nes Lokal mit super leckeren Nudelgerichten zu angemessenen Preisen. Das hier sind Ravioli gef\u00fcllt mit Pilzen und Waln\u00fcssen in einer Sahnesauce. Himmlisch! Die Kellner sind auch sehr sympathisch und hilfsbereit. Auf jeden Fall einen Besuch wert! #Amsterdam #spaghetteria #ravioli #food #instafood #holland #amsterdamfood #love #yummi", "locationName": "Spaghetteria Amsterdam West", "coordinate": {"lat": "52.368221326", "lng": "4.86635775966"}, "locationId": "239535425", "createdTime": 1439641734}
{"food": ["coffee"], "text": "Some great espresso at de rotterdammert cafe in Rotterdam.  #derotterdammert #rotterdam #rotterdamcafes #rottersamrestaurants #rotterdamfood #amsterdam #amsterdamfood #rotterdamcoffee #rotterdamcafe #instafood #coffee #espresso @cup_of_caffeine \ud83d\udc4c\ud83c\udffb\ud83d\ude0a", "locationName": "Rotterdam, Netherlands", "coordinate": {"lat": "51.9167", "lng": "4.5"}, "locationId": "213226541", "createdTime": 1439660668}
{"food": ["salad"], "text": "Best salad ever \ud83d\ude0d #salad #sla #cute #latte #amsterdam #amsterdamfood #netherlands #holland #summer #holidays #august #photooftheday #instagood #instamood #instadaily #vscocam #vsco #nofilterneeded #vscofood #fit #lifestyle #healthy", "locationName": "Sla", "coordinate": {"lat": "52.3789584", "lng": "4.8852407"}, "locationId": "242076075", "createdTime": 1439737255}
{"food": ["salad"], "text": "Best salad ever \ud83d\ude0d #salad #sla #cute #latte #amsterdam #amsterdamfood #netherlands #holland #summer #holidays #august #photooftheday #instagood #instamood #instadaily #vscocam #vsco #nofilterneeded #vscofood #fit #lifestyle #healthy", "locationName": "Sla", "coordinate": {"lat": "52.3789584", "lng": "4.8852407"}, "locationId": "242076075", "createdTime": 1439737255}
{"food": ["toast", "french toast"], "text": "Day 4 - Amsterdam: French toast with bacon, banana slices and maple syrup. Hands down the best French toast I've ever had. #amsterdam #Europe #frenchtoast #bacon #amsterdamfood #foodadventures #potd #brunch #G's #eurotrip #foodie #travel #wanderlust", "locationName": "G's Really Nice Place", "coordinate": {"lat": "52.3807631825", "lng": "4.88429098745"}, "locationId": "294642516", "createdTime": 1439776635}
{"food": ["salad"], "text": "Grey day in Amsterdam \ud83d\udc31 #juiceandsalad #salad #australian #fit #lifestyle #nofilterneeded #healthy  #instamood #instadaily #instagood #greentea #summer #yum #amsterdam #amsterdamfood #netherlands #holland #august #photooftheday #foodgasm #foodporn #instafood", "locationName": "JUICE & SALAD", "coordinate": {"lat": "52.3640199", "lng": "4.8741"}, "locationId": "17594776", "createdTime": 1439825822}
{"food": ["salad"], "text": "Grey day in Amsterdam \ud83d\udc31 #juiceandsalad #salad #australian #fit #lifestyle #nofilterneeded #healthy  #instamood #instadaily #instagood #greentea #summer #yum #amsterdam #amsterdamfood #netherlands #holland #august #photooftheday #foodgasm #foodporn #instafood", "locationName": "JUICE & SALAD", "coordinate": {"lat": "52.3640199", "lng": "4.8741"}, "locationId": "17594776", "createdTime": 1439825822}
{"food": ["chocolate"], "text": "Milk chocolate I definitly losing my gains haha \ud83d\ude0b\ud83d\ude1d #gains #milk #chocolate #delicious #yummy #amsterdamfood #Amsterdam #nice #happy #great #streetfood #food #junk #chocolade #genot #goed #gelukkig #shop #centrum #citycenter #lifestyle #straatstijl #streetstyle", "locationName": "Amsterdam, Netherlands", "coordinate": {"lat": "52.3731", "lng": "4.8922"}, "locationId": "116231", "createdTime": 1439826863}
{"food": ["pie", "apple pie"], "text": "Day 5 - Amsterdam: Prepare to line up for the city's most famous apple pie! Not too sweet, with a biscuity base, it's the perfect treat after a stroll through the Noordermarkt right outside. #amsterdam #Europe #applepie #foodadventures #eurotrip #potd #wanderlust #foodoftheworld #amsterdamfood #travel #foodie #cafe #winkel43 #foodie", "locationName": "Caf\u00e9 Winkel 43", "coordinate": {"lat": "52.3789987708", "lng": "4.88641616586"}, "locationId": "7965901", "createdTime": 1439899346}
{"food": ["chocolate", "ice cream"], "text": "Chocolate souffl\u00e9 with sesame ice cream #Amsterdam #pastaconsardeAmsterdam #amsterdamrestaurants #amsterdamdining #amsterdamfood", "locationName": "Geisha restaurant&lounge", "coordinate": {"lat": "52.3754", "lng": "4.90283"}, "locationId": "362970", "createdTime": 1439922718}
{"food": ["sorbet"], "text": "Lemongrass creme br\u00fbl\u00e9e and lemon sorbet #Amsterdam #pastaconsardeAmsterdam #amsterdamrestaurants #amsterdamdining #amsterdamfood", "locationName": "Geisha restaurant&lounge", "coordinate": {"lat": "52.3754", "lng": "4.90283"}, "locationId": "362970", "createdTime": 1439923075}
{"food": ["waffle", "chocolate", "cookie", "chocolate chip"], "text": "First waffle in Amsterdam. This was right after @ash_lee_cole and I split a chocolate chip cookie! The food here is amazing! #Amsterdam #amsterdamfood #ashandkaratraveleurope #eater", "locationName": "The Happy Pig", "coordinate": {"lat": "52.3703824202", "lng": "4.88914548935"}, "locationId": "504502619", "createdTime": 1440086441}
{"food": ["hot dog"], "text": "Dutch Hot Dog I guess\ud83d\udc4f\ud83c\udffc #hotdog #amsterdam #foodporn #streetfood #eatingamsterdam #amsterdamfood #armcandy #nofilter #yummy", "locationName": "Amsterdam", "coordinate": {"lat": "52.3777351736", "lng": "4.91485475148"}, "locationId": "224637975", "createdTime": 1440157221}
{"food": ["toast"], "text": "@ash_lee_cole and I stopped for a dim sum snack earlier and this sesame prawn toast was by far the best thing we tried. #Amsterdam #amsterdamfood #dimsum #ashandkaratraveleurope", "locationName": "Oriental City Restaurant Amsterdam", "coordinate": {"lat": "52.371863485", "lng": "4.89605646667"}, "locationId": "501936827", "createdTime": 1440185941}
{"food": ["salad", "sandwich"], "text": "I'm in salmon heaven \ud83d\ude0d...this hybrid of salad and sandwich was full of fresh ingredients, perfectly tied together by the crispy fried shallots on top \ud83d\udc4c | @ivyandbros, Amsterdam | #myfoodbelly #crispyismymiddlename", "locationName": "Ivy & Bros Amsterdam", "coordinate": {"lat": "52.3735253468", "lng": "4.89763986239"}, "locationId": "266670102", "createdTime": 1440201046}
{"food": ["sandwich"], "text": "Died and went to @foodhallen heaven. Luxurious dog from @bullsanddogs, pulled pork sandwich from @theroughkitchen, and a sampler from @deballenbar. #Amsterdam #amsterdamfood #foodhallen #ashandkaratraveleurope", "locationName": "De Foodhallen", "coordinate": {"lat": "52.36747", "lng": "4.86788"}, "locationId": "297415489", "createdTime": 1440260374}
{"food": ["pizza"], "text": "I do not know who makes the best pizza in Amsterdam but I am sure Fuoco Vivo is one of the candidates. #pastaconsardeAmsterdam #Amsterdam #amsterdamrestaurants #amsterdamdining #amsterdamfood", "locationName": "Fuoco Vivo", "coordinate": {"lat": "52.3717665", "lng": "4.8733894"}, "locationId": "1858892", "createdTime": 1440438238}
{"food": ["cake"], "text": "Those cakes are like heaven \u2601\u2601 #cake #foodgasm #foodporn #instafood #instagood #instamood #instadaily #amsterdamfood #sweet #cute #petitgateau #bounty #nodiet #foodie #heaven #sweettooth #hungry #summer #yum", "locationName": "Petit G\u00e2teau", "coordinate": {"lat": "52.3805531", "lng": "4.8914562"}, "locationId": "138458675", "createdTime": 1440455047}
{"food": ["heineken"], "text": "Tafeltje voor vier. Surf & Turf to share. Koude Heineken bieren. Hebben wij voor jou! Dus als je zin hebt... Tot straks!  #surfandturf #lobster #grilledlobster #ribs #steak #ribeye #tbone #cotedeboeuf #amsterdam #depijp #vanwoustraat #amsterdamfood #heineken #brickwall", "locationName": "Caf\u00e9 Carbon", "coordinate": {"lat": "52.3518083", "lng": "4.9029365"}, "locationId": "521059641", "createdTime": 1440606451}
{"food": ["pizza"], "text": "This one is bufala and like the ones that I ate in Napoli,not the same but close and it has crips layer at the bottom which is really important. This place is really small,pure Italian.They have 4-5 types of pizza like pizzarias in Napoli. #Amsterdam #pastaconsardeAmsterdam #amsterdamrestaurants #amsterdamdining #amsterdamfood", "locationName": "La Zoccola Del Pacioccone", "coordinate": {"lat": "52.3754666", "lng": "4.8940077"}, "locationId": "980741327", "createdTime": 1440697345}
{"food": ["pizza"], "text": "#leliegracht#daportarevia#piazzadam#pizza#pizzaportafoglio#amsterdam#amsterdamgrachten", "locationName": "Leliegracht", "coordinate": {"lat": "52.375", "lng": "4.88639"}, "locationId": "945127972", "createdTime": 1441023152}
{"food": ["ramen"], "text": "Waga whuaat\ud83d\ude4c\ud83c\udffc #ramen #lunch #wagamama #noodlesoup #foodporn #amsterdamfood #amsterdameats #nofilter #ilovemesomenoodlesoup", "locationName": "Wagamama Amstelstraat / Rembrandtplein", "coordinate": {"lat": "52.3663384325", "lng": "4.89821061696"}, "locationId": "239511690", "createdTime": 1441100897}
{"food": ["tea"], "text": "Tea time\u2615\ufe0f\ud83c\udf31 #peppermint #tea #gracht #amsterdamfood #amsterdamdrinks #amazingamsterdam #loveit #cafetabac #freshmint #nofilter", "locationName": "Caf\u00e9 Tabac Amsterdam", "coordinate": {"lat": "52.3801599", "lng": "4.88852"}, "locationId": "150502", "createdTime": 1441210937}
{"food": ["poffertjes"], "text": "Dreaming of the perfect breakfast - a plate (or three) of these fluffy  Dutch poffertjes would just about cut it \ud83d\ude04 Wish I was back in Amsterdam right now! | #myfoodbelly #everythingsbetterinmini", "locationName": "Albert Cuyp Market", "coordinate": {"lat": "52.356111", "lng": "4.896944"}, "locationId": "215250746", "createdTime": 1441236623}
{"food": ["coffee", "tea"], "text": "#DragonsDelightRestuarantAndBakery 10% #studentdiscount #rosewater #cupcakes #coffee  #tea #smoothie #brunch  #takeaway #freshlybaked #locallysourcedproduce #tolstraat #amsterdam #amsterdamworld #amsterdamfood", "locationName": "Dragons Delight", "coordinate": {"lat": "52.35306", "lng": "4.9074799"}, "locationId": "703293502", "createdTime": 1441389829}
{"food": ["pastry"], "text": "#lemonpie#amsterdamrestaurants #amsterdamfood #amsterdam #bolo #pistouamsterdam #yolo#desert#pastry", "locationName": "Caf\u00e9 Pistou", "coordinate": {"lat": "52.3829188", "lng": "4.851043"}, "locationId": "48145875", "createdTime": 1441399194}
{"food": ["ciabatta"], "text": "avocado chicken ciabatta x brassiere baton, amsterdam 8/10  the avocado adds a smooth texture to the chicken and bacon. The portion is REALLY BIG for breakfast and we ended up having to split between four people. If you're ever in amsterdam give this a try. :) -r  #foodiversitylunch #foodiversityamsterdam", "locationName": "Brasserie B\u00e2ton", "coordinate": {"lat": "52.37691", "lng": "4.88955"}, "locationId": "229588274", "createdTime": 1441435742}
{"food": ["ciabatta"], "text": "avocado chicken ciabatta x brassiere baton, amsterdam 8/10  the avocado adds a smooth texture to the chicken and bacon. The portion is REALLY BIG for breakfast and we ended up having to split between four people. If you're ever in amsterdam give this a try. :) -r  #foodiversitylunch #foodiversityamsterdam", "locationName": "Brasserie B\u00e2ton", "coordinate": {"lat": "52.37691", "lng": "4.88955"}, "locationId": "229588274", "createdTime": 1441435742}
{"food": ["rendang", "nasi goreng", "sayur lodeh"], "text": "Throwback to the almighty chaos dish that is Nasi Rames at Kartika, Amsterdam.  You have your nasi goreng, telor pedis, sate kambing, sayur lodeh and your daging rendang! Easy translation to heavenly goodness!! Obviously a Bintang beer to complete the Indonesian circle...! #nasi #nasirames #nasigoreng #sayur #dagingrendang #rendang #indonesian #indonesianfood #kartika #amsterdam #amsterdamfood #bintang #beer #food #foodporn #foodie #instafood", "locationName": "Kartika", "coordinate": {"lat": "52.3630936", "lng": "4.8758673"}, "locationId": "9013895", "createdTime": 1441656671}
{"food": ["pancake", "chocolate", "whipped cream"], "text": "Eating pannenkoeken (Dutch pancakes) = check! \u2764\ufe0f Once again, we got lucky... I was expecting a long queue at this pancake house but it looks like the rain kept the crowd away! These pancakes were delicious (mine is banana, mixed nuts and chocolate sauce, I added some whipped cream)! \ud83c\udf74", "locationName": "Pancakes Amsterdam", "coordinate": {"lat": "52.3748999", "lng": "4.88373"}, "locationId": "1935745", "createdTime": 1441730375}
{"food": ["pancake", "chocolate", "whipped cream"], "text": "Eating pannenkoeken (Dutch pancakes) = check! \u2764\ufe0f Once again, we got lucky... I was expecting a long queue at this pancake house but it looks like the rain kept the crowd away! These pancakes were delicious (mine is banana, mixed nuts and chocolate sauce, I added some whipped cream)! \ud83c\udf74", "locationName": "Pancakes Amsterdam", "coordinate": {"lat": "52.3748999", "lng": "4.88373"}, "locationId": "1935745", "createdTime": 1441730375}
{"food": ["cookie"], "text": "Eating a cheese & dutch sausage tosti \ud83c\udf74Because I was cold from the pouring rain, I decided to drink a koffie verkeerd (Dutch cafe latte, with a cookie on the side) and ended up being served what was one of the best coffees I've had in my life \u2615\ufe0f", "locationName": "De Kat in de Wijngaert", "coordinate": {"lat": "52.3802268232", "lng": "4.88424040383"}, "locationId": "8914", "createdTime": 1441741517}
{"food": ["pie", "apple pie"], "text": "I've been dreaming of this place ever since I saw the billion recommendations for their apple pie \ud83c\udf4e", "locationName": "Caf\u00e9 Winkel 43", "coordinate": {"lat": "52.3789987708", "lng": "4.88641616586"}, "locationId": "7965901", "createdTime": 1441748160}
{"food": ["chocolate", "coffee", "tea"], "text": "#DragonsDelightRestuarantAndBakery 10% #studentdiscount #chocolate  #walnut & #banana #cupcakes #coffee  #tea #smoothie #brunch  #takeaway #freshlybaked #locallysourcedproduce #tolstraat #amsterdam #amsterdamworld #amsterdamfood", "locationName": "Dragons Delight", "coordinate": {"lat": "52.35306", "lng": "4.9074799"}, "locationId": "703293502", "createdTime": 1441831313}
{"food": ["chocolate", "coffee", "tea"], "text": "#DragonsDelightRestuarantAndBakery 10% #studentdiscount #chocolate  #walnut & #banana #cupcakes #coffee  #tea #smoothie #brunch  #takeaway #freshlybaked #locallysourcedproduce #tolstraat #amsterdam #amsterdamworld #amsterdamfood", "locationName": "Dragons Delight", "coordinate": {"lat": "52.35306", "lng": "4.9074799"}, "locationId": "703293502", "createdTime": 1441831313}
{"food": ["coffee", "tea"], "text": "#DragonsDelightRestuarantAndBakery 10% #studentdiscount #earlgreytea & #lavender #cupcakes #coffee  #tea #smoothie #brunch  #takeaway #freshlybaked #locallysourcedproduce #tolstraat #amsterdam #amsterdamworld #amsterdamfood", "locationName": "Dragons Delight", "coordinate": {"lat": "52.35306", "lng": "4.9074799"}, "locationId": "703293502", "createdTime": 1441831477}
{"food": ["satay"], "text": "Sat\u00e9 Ajam - Chicken satay skewers with peanut sauce from @restaurantkantjil on Spuistraat in Amsterdamn, Netherlands. #HDScoobySnacks #food #instafood #Boston #BostonFood #foodie #BostonFoodie #foodporn #IndonesianFood #Indonesia #Amsterdam #AmsterdamFood #Netherlands #KantjilEnDeTijger #KantjilDeTijger #chicken #satay #Sat\u00e9Ajam #peanutsauce", "locationName": "Kantjil & de Tijger", "coordinate": {"lat": "52.3691653", "lng": "4.8888949"}, "locationId": "213808005", "createdTime": 1441832996}
{"food": ["poffertjes"], "text": "Poffertjes, ie. Dutch mini-pancakes over melted butter and topped with powdered sugar \ud83c\udf74", "locationName": "Albert Cuyp Market", "coordinate": {"lat": "52.356111", "lng": "4.896944"}, "locationId": "215250746", "createdTime": 1441908732}
{"food": ["poffertjes"], "text": "Watching poffertjes being made... These were delicious! \ud83d\ude48", "locationName": "Albert Cuyp Market", "coordinate": {"lat": "52.356111", "lng": "4.896944"}, "locationId": "215250746", "createdTime": 1441911560}
{"food": ["cappuccino", "pancake"], "text": "So I ordered a cappuccino, a pancake, and scrambled eggs. Wow Amsterdam!\ud83d\ude18 #amsterdam #amsterdamfood #amsterdamlunch", "locationName": "ROEM", "coordinate": {"lat": "52.3761403", "lng": "4.8838961"}, "locationId": "243935868", "createdTime": 1441975291}
{"food": ["soup"], "text": "Potato soup & scallop #amsterdam #pastaconsardeamsterdam #amsterdamrestaurants #amsterdamdining #amsterdamfood", "locationName": "Segugio", "coordinate": {"lat": "52.362332463", "lng": "4.89878343372"}, "locationId": "603826520", "createdTime": 1442081125}
{"food": ["tagliatelle"], "text": "Tagliatelle with pesto sauce. That is a perfect pesto #amsterdam #pastaconsardeamsterdam #amsterdamrestaurants #amsterdamfood #amsterdamdining", "locationName": "Segugio", "coordinate": {"lat": "52.362332463", "lng": "4.89878343372"}, "locationId": "603826520", "createdTime": 1442081557}
{"food": ["foie gras"], "text": "Perfect French cooking in a 300 years old building. This is pan fried foie gras with a generous portion. #amsterdam #pastaconsardeamsterdam #amsterdamrestaurants #amsterdamfood #amsterdamdining", "locationName": "De Compagnon", "coordinate": {"lat": "52.3761901863", "lng": "4.89819936054"}, "locationId": "376222447", "createdTime": 1442082265}
{"food": ["gazpacho"], "text": "Gazpacho with berries #amsterdam #pastaconsardeamsterdam #amsterdamrestaurants #amsterdamfood #amsterdamdining", "locationName": "De Compagnon", "coordinate": {"lat": "52.3761901863", "lng": "4.89819936054"}, "locationId": "376222447", "createdTime": 1442082547}
{"food": ["pie", "caramel", "cookie", "apple pie", "ice cream"], "text": "Apple pie with a scoop of salted caramel cookie ice cream! #icecream #cookie #applepie #dessert #amsterdamcity #amsterdamfood #food #foodie", "locationName": "Amsterdam Centraal", "coordinate": {"lat": "52.37805", "lng": "4.8994799"}, "locationId": "279070120", "createdTime": 1442137392}
{"food": ["hot dog"], "text": "Amsterdam appears to be the capital of street food and we are taking full advantage! There's even amazing Vegetarian food to be had all over the place and a perfect example is this Vegetarian Hot Dog. A superb herb sausage with all the essential toppings. It even makes the meaty hot dog (that was actually delicious) look nowhere near as interesting. Take that.  Dear Sydney, our Vego is never coming back. Apologies, TGOF  In all seriousness though, this city has truly amazing food that offers something for everyone. Definitely add it to your to-do list if you are looking for more than the seedy \"cafes\" found in the overpriced Red Light District. #TGOFeatoutEurope", "locationName": "FoodCrib", "coordinate": {"lat": "52.35917", "lng": "4.88288"}, "locationId": "487068997", "createdTime": 1442255374}
{"food": ["sprinkles"], "text": "I TOOK HOMER'S DONUT.\ud83d\ude1c\ud83c\udf69 #homersimpson #simpsons #donut #pinkdonut #simpsonsdonut #sprinkles #pink #foodporn #sweets #amsterdam #amsterdamfood #icebakery #dessert #ilovedonuts #amsterdamstyle #amsterdamsquad #weekendtrip #cologne #colognechic #parisienne #hippie #hippiegirl #peace #& #love", "locationName": "Ice Bakery", "coordinate": {"lat": "52.3717863", "lng": "4.8964355"}, "locationId": "847246288", "createdTime": 1442270199}
{"food": ["caramel"], "text": "Fresh Stroopwaffle for breakfast? When in Rome ... Err, Amsterdam! These are a national favourite and we certainly understand why. Sweet, crunchy, caramel goodness and we are hooked! We need these in Sydney. Seriously.  #TGOFeatoutEurope", "locationName": "Stroopwafel Heaven", "coordinate": {"lat": "52.37386", "lng": "4.88443"}, "locationId": "522917443", "createdTime": 1442352886}
{"food": ["coffee"], "text": "Girls and coffee and coffee and girls and SUN! 5 weeks you were shining bright\u2600\ufe0f Where are you my friend? We miss you! \ud83d\udcf7 credits: @denveryang #sunnytimes #drblend #amsterdamfood #coffee #goodtimes #summer #wemissyou #green #gramthedam", "locationName": "Dr. Blend", "coordinate": {"lat": "52.37718", "lng": "4.88867"}, "locationId": "226480063", "createdTime": 1442396760}
{"food": ["chocolate", "cheesecake", "cake", "cappuccino"], "text": "Chocolate Banana Cheesecake #food #foodporn #amsterdamfood #amsterdam#city #cityfood #cheesecake #chocolate #banana #coffeeporn #cake #cappuccino", "locationName": "Pippers", "coordinate": {"lat": "52.37607", "lng": "4.90684"}, "locationId": "851068765", "createdTime": 1442420699}
{"food": ["french fries"], "text": "Patat...French fries and mayo Dutch style!#amsterdamfood#amsterdam#patat#foodporn", "locationName": "Amserterdam", "coordinate": {"lat": "52.3711236643", "lng": "4.89190274722"}, "locationId": "353050588", "createdTime": 1442427982}
{"food": ["cake", "chocolate", "mousse", "ice cream"], "text": "Heavenly almond cake with ice cream, chocolate mousse and saffron Cr\u00e8me br\u00fbl\u00e9e for dessert at De Plantage, Amsterdam.  #deplantage #amsterdam #amsterdamfood #amsterdamrestaurant #instafood #foodporn #food #dessert #cremebrulee #chocolate #almondcake #dessert", "locationName": "Plantage", "coordinate": {"lat": "52.3658", "lng": "4.912"}, "locationId": "282193754", "createdTime": 1442506116}
{"food": ["bun", "black bun"], "text": "Black bun burger @cannibaleroyale  Fully booked! it is necessary to make a reservation upto 3 days in advance.  Finding places like this makes trips very special.  Thanks to our waiter Ed for giving us the best service  #amsterdam #amsterdamfood #burger #blackbun #foodporn #restaurants #recommended #cannibaleroyale #picoftheday #travel #vacations #europe #fashion #trend", "locationName": "Cannibale Royale", "coordinate": {"lat": "52.3679928068", "lng": "4.89023277556"}, "locationId": "245942364", "createdTime": 1442681185}
{"food": ["kebab"], "text": "Foodhallen! #foodhallen #amsterdam #amsterdamcity #amsterdamlife #amsterdam2015 #instagood #amsterdamfood #kebab", "locationName": "De Foodhallen", "coordinate": {"lat": "52.36747", "lng": "4.86788"}, "locationId": "297415489", "createdTime": 1443115741}
{"food": ["stroopwafel"], "text": "Finally tried the best stroopwafel in Amsterdam.", "locationName": "Albert Cuyp Market", "coordinate": {"lat": "52.356111", "lng": "4.896944"}, "locationId": "215250746", "createdTime": 1443131408}
{"food": ["poffertjes"], "text": "Poffertjes (mini fluffy pancakes)", "locationName": "Albert Cuyp Market", "coordinate": {"lat": "52.356111", "lng": "4.896944"}, "locationId": "215250746", "createdTime": 1443131609}
{"food": ["tart"], "text": "First stop in Amsterdam... The best Apple tart \ud83d\ude0b #amsterdamcity #foodpics #foodstyle #insta_global #lovethiscity #sweets #amsterdam #amsterdamfood #foodporn", "locationName": "Caf\u00e9 Winkel 43", "coordinate": {"lat": "52.3789987708", "lng": "4.88641616586"}, "locationId": "7965901", "createdTime": 1443169486}
{"food": ["ravioli", "chutney"], "text": "Autumn is upon us: Holy! Ravioli! Filled with Gorgonzola and walnuts, complemented by pear chutney and chicory by holyravioli Amsterdam: Delicioso #autumn #japanesestyle #ceramics #ravioli #holyravioli #tatami #foodstagram #autumnleaves #amsterdam #amsterdamfood #nuts #kintsugi #keramiek #\u5668 #\u548c\u98a8", "locationName": "Holy Ravioli", "coordinate": {"lat": "52.3637714", "lng": "4.8630842"}, "locationId": "10040591", "createdTime": 1443210785}
{"food": ["quiche"], "text": "Salmon quiche and detox juice. Healthy breakfast @lpqnl makes my tummy super happy!", "locationName": "Le Pain Quotidien - Oud Zuid", "coordinate": {"lat": "52.3544620493", "lng": "4.87206441948"}, "locationId": "2355723", "createdTime": 1443217014}
{"food": ["ravioli", "chutney"], "text": "#Repost @efemeer_earthenware with @repostapp \u30fb\u30fb\u30fb Autumn is upon us: Holy! Ravioli! Filled with Gorgonzola and walnuts, complemented by pear chutney and chicory by holyravioli Amsterdam: Delicioso #autumn #japanesestyle #ceramics #ravioli #holyravioli #tatami #foodstagram #autumnleaves #amsterdam #amsterdamfood #nuts #kintsugi #keramiek #\u5668 #\u548c\u98a8", "locationName": "Holy Ravioli", "coordinate": {"lat": "52.3637714", "lng": "4.8630842"}, "locationId": "10040591", "createdTime": 1443274410}
{"food": ["soto ayam"], "text": "#amsterdam #amsterdamcity #amsterdamfood  Better soto ayam than in Bali", "locationName": "Location:Amsterdam City Centre, Amsterdam Central Station, Dam Square", "coordinate": {"lat": "52.3764034403", "lng": "4.89677154753"}, "locationId": "215230904", "createdTime": 1443285162}
{"food": ["coffee"], "text": "Moods coffee corner.... #amsterdamcity #coffeetime #coffeecorner #jj #insta_global #momentoftheday #amsterdamfood #amsterdam #hapitria #happy #vsco #clubsocial #citylife #morningtime", "locationName": "Moods.", "coordinate": {"lat": "52.3795708521", "lng": "4.88052481223"}, "locationId": "8901847", "createdTime": 1443432017}
{"food": ["cake", "sponge cake"], "text": "#cielbleu #amsterdamfood #amsterdam #amsterdamcity  Sponge cake infused with rum", "locationName": "Ciel Bleu Restaurant (Okura)", "coordinate": {"lat": "52.3489542397", "lng": "4.89375350304"}, "locationId": "235230223", "createdTime": 1443470766}
{"food": ["coffee", "tea"], "text": "#cielbleu #amsterdamcity #amsterdamfood #amsterdam  For coffee and tea", "locationName": "Ciel Bleu Restaurant (Okura)", "coordinate": {"lat": "52.3489542397", "lng": "4.89375350304"}, "locationId": "235230223", "createdTime": 1443470832}
{"food": ["chocolate"], "text": "#amsterdamcity #amsterdam #amsterdamfood  Petite four, chocolate tree and soil", "locationName": "Bord'Eau", "coordinate": {"lat": "52.367478", "lng": "4.894101"}, "locationId": "912863021", "createdTime": 1443559824}
{"food": ["sandwich", "cheese sandwich"], "text": "A very delicious goat cheese sandwich in Amsterdam. #amsterdamcity #foodpics #foodstyle #foodporn #amsterdamfood #eathealthy #lombardos #delicious #yummy #foodie #recommended #amsterdam #instagood #morningtime", "locationName": "Lombardo's", "coordinate": {"lat": "52.36349", "lng": "4.8887"}, "locationId": "3712980", "createdTime": 1443640577}
{"food": ["sandwich", "cheese sandwich"], "text": "A very delicious goat cheese sandwich in Amsterdam. #amsterdamcity #foodpics #foodstyle #foodporn #amsterdamfood #eathealthy #lombardos #delicious #yummy #foodie #recommended #amsterdam #instagood #morningtime", "locationName": "Lombardo's", "coordinate": {"lat": "52.36349", "lng": "4.8887"}, "locationId": "3712980", "createdTime": 1443640577}
{"food": ["coffee"], "text": "Houten tafels, witte stoelen, grijze zitzakken en kunst aan de muren.  Wat een heerlijke sfeer hangt er bij C&T, niet voor niets \u00e9\u00e9n van mijn favo spots. Ga onderuit gezakt zitten in een zitzak, bestel iets lekkers en waan je voor eventjes in New York.  Ps: Ze hebben ook coffee to go. ;) Coffee & Coconuts, Ceintuurbaan 282-284  #Amsterdam #coffeeandcoconuts #depijp #amsterdamhotspot #amsterdamrestaurants #amsterspots #amsterdamfood #waaramsterdameet #opdekoffieinamsterdam", "locationName": "C \u2022 T  coffee & coconuts", "coordinate": {"lat": "52.3527045905", "lng": "4.89141715443"}, "locationId": "434784699", "createdTime": 1443716977}
{"food": ["tea"], "text": "Veal and shrimp croquette balls + mint tea for breakfast.", "locationName": "Caf\u00e9 Luxembourg, Amsterdam", "coordinate": {"lat": "52.3687363907", "lng": "4.88893177827"}, "locationId": "348779", "createdTime": 1443749118}
{"food": ["ravioli"], "text": "Holyravioli with a surprise filling, but delicious as always with simple steamed broccoli, cherry tomatoes,  pine nuts and garlic = ready for the weekend #ravioli #holyravioli #tatami #foodstagram #amsterdam #amsterdamfood #amsterdamfoodie #keramiek #\u5668 #broccoli #pinenuts #nuts #vegetarian #simplefood #truefood", "locationName": "Holy Ravioli", "coordinate": {"lat": "52.3637714", "lng": "4.8630842"}, "locationId": "10040591", "createdTime": 1443807169}
{"food": ["ravioli"], "text": "Holyravioli with a surprise filling, but delicious as always with simple steamed broccoli, cherry tomatoes,  pine nuts and garlic = ready for the weekend #ravioli #holyravioli #tatami #foodstagram #amsterdam #amsterdamfood #amsterdamfoodie #keramiek #\u5668 #broccoli #pinenuts #nuts #vegetarian #simplefood #truefood", "locationName": "Holy Ravioli", "coordinate": {"lat": "52.3637714", "lng": "4.8630842"}, "locationId": "10040591", "createdTime": 1443807169}
{"food": ["caramel"], "text": "I'm #inlove with #stroopwafels!!! The warm caramel goodness!! I \u2764\ufe0f #amsterdam!!", "locationName": "Rijksmuseum", "coordinate": {"lat": "52.359969", "lng": "4.885325"}, "locationId": "213197666", "createdTime": 1443880427}
{"food": ["ice cream"], "text": "Molecular ice cream Sunday. #molecularicecream #glacierfou #icecream #amsterdam #amsterdamfood #deserts", "locationName": "Amsterdam, Netherlands", "coordinate": {"lat": "52.3731", "lng": "4.8922"}, "locationId": "116231", "createdTime": 1443883233}
{"food": ["bagel"], "text": "#l'amourbakery #amsterdamcity #amsterdam #amsterdamlife #amsterdamfood #insterdam #l'amour #bakery #bakerylife #bagel #coffeeshop", "locationName": "Amsterdam", "coordinate": {"lat": "52.3777351736", "lng": "4.91485475148"}, "locationId": "224637975", "createdTime": 1443894905}
{"food": ["curry"], "text": "Best curry house in town: Surya #amsterdam #pastaconsardeamsterdam #amsterdamrestaurants #amsterdamdining #amsterdamfood", "locationName": "Restaurant Surya", "coordinate": {"lat": "52.3532668348", "lng": "4.89372978423"}, "locationId": "46660990", "createdTime": 1443938195}
{"food": ["kebab", "tandoori chicken", "chicken tikka"], "text": "Tandoori mixed grill: Chicken tandoori, chicken tikka, lamb tikka, shiekh kebab #pastaconsardeamsterdam #amsterdam #amsterdamrestaurants #amsterdamfood #amsterdamdining", "locationName": "Restaurant Surya", "coordinate": {"lat": "52.3532668348", "lng": "4.89372978423"}, "locationId": "46660990", "createdTime": 1443938390}
{"food": ["ganache", "caramel", "tart", "caramel tart"], "text": "Just had one of the most amazing meals ever with my dude. Ugh I am soooo full but tbh I could go for another slice of that ganache caramel tart... \ud83d\ude18", "locationName": "Pompstation", "coordinate": {"lat": "52.365933998", "lng": "4.93336686647"}, "locationId": "64524", "createdTime": 1443990590}
{"food": ["heineken", "nutella"], "text": "Last Stop - Amsterdam \u2728Must try foods : fries \ud83c\udf5f , beef croquettes and waffles and of course drink Heineken \ud83c\udf7a \u2728  #instafood #beer #heineken #fries #waffles #nutella #yotella #insta_amsterdam #amsterdam #bestofamaterdam #amsterdamworld #amsterdamshots #amsterdam_moments #amsterdamview #eurotrip #wonderlust #blogger #travelblogger #blog #igtravel #leilaspassport #amsterdamfood", "locationName": "Amsterdam, Netherlands", "coordinate": {"lat": "52.3731", "lng": "4.8922"}, "locationId": "116231", "createdTime": 1444073062}
{"food": ["ragout"], "text": "Another thing we didn't get enough in #amsterdam is #bitterballen These crunchy, creamy meat-ragout filled deep fried balls, go great with a cold one. Great #fingerfood !!! #amsterdameats #eatingAmsterdam #foodstagram #instafood #foodphotography #amsterdamfood", "locationName": "Amsterdam, Netherlands", "coordinate": {"lat": "52.3731", "lng": "4.8922"}, "locationId": "116231", "createdTime": 1444099724}
{"food": ["pie", "apple pie"], "text": "The one thing worth waiting in line for: apple pie! #cafewinkel43 #amsterdam #amsterdamfood #applepie #fall #cafe #autumndelights #jordaan #westerstraat #list #latepost #sunnyday #traveldiary #amsterdamfavourite #tip", "locationName": "Caf\u00e9 Winkel 43", "coordinate": {"lat": "52.3789987708", "lng": "4.88641616586"}, "locationId": "7965901", "createdTime": 1444113757}
{"food": ["curry"], "text": "Empezamos bien en Amsterdam \ud83c\uddf3\ud83c\uddf1 gracias a @jessicalekerman \u2764\ufe0f\ud83d\udc4f\ud83c\udffb La sopa de Calabaza + Leche de Coco & Curry no lleg\u00f3 a tener foto \ud83d\ude33 #amsterdamfood #lunch #veggie #vegetarian #healthyfood #wrap #vegetables #fit #foodie #fotd #foodporn #blushingamsterdam #healthychoices #TINItour @blushingholland", "locationName": "Blushing", "coordinate": {"lat": "None", "lng": "None"}, "locationId": "809886572", "createdTime": 1444130935}
{"food": ["sandwich"], "text": "Yo. This place makes a killer roast beef sandwich. #puccini #amsterdamfood", "locationName": "Puccini", "coordinate": {"lat": "52.3680264253", "lng": "4.89870601743"}, "locationId": "238713841", "createdTime": 1444132289}
{"food": ["toast", "steak tartare"], "text": "AMAAAAZING (no filter) steak tartare with quail egg, truffle mayonnaise, bacon toast and anchovies /// #cannibaleroyale #helloamsterdam #steaktartare #quailegg #truffle #trufflemayonnaise #anchovies #foodporn #foodgasm #instafood #amsterdamfood #travellingfoodie #beefporn #thefoodzoo /// \ud83d\udc22", "locationName": "Cannibale Royale", "coordinate": {"lat": "52.3679928068", "lng": "4.89023277556"}, "locationId": "245942364", "createdTime": 1444160442}
{"food": ["soup"], "text": "Two days late, but still very happy giving myself a special treat as birthday gift. Enjoying the big plate of fresh seafood and lobster soup. Just me and myself. \ud83d\ude18 #seafoodbar #seafood #yummyamsterdam #instamsyerdam #\u8377\u862d\u65c5\u904a #\u4eab\u53d7 #\u6b50\u6d32 #\u963f\u59c6\u65af\u7279\u4e39 #amsterdamfood #yummy #\u6d77\u9bae #\u6d77\u9bae\u9910\u5ef3 #\u6d77\u9bae\u7f8e\u98df", "locationName": "The Seafood Bar", "coordinate": {"lat": "52.3597107", "lng": "4.8776941"}, "locationId": "21854768", "createdTime": 1444654277}
{"food": ["poffertjes", "salad"], "text": "Poffertjes, baby dutch pancakes\u25abNever underestimate how much I can eat in three days. It was a tough call between these and the waffles.. but now I need a salad asap #Amsterdam", "locationName": "Amsterdam, Netherlands", "coordinate": {"lat": "52.3731", "lng": "4.8922"}, "locationId": "116231", "createdTime": 1444775978}
{"food": ["kebab"], "text": "Lamb seekh kebab @shirkhanamsterdam #Amsterdam", "locationName": "De Foodhallen", "coordinate": {"lat": "52.36747", "lng": "4.86788"}, "locationId": "297415489", "createdTime": 1444840738}
{"food": ["taco"], "text": "Just had dinner @bar.bra.amsterdam, where they have different cooks every night. Today @eatpocha made great Korean food and this weekend @bestcoasttacos will serve their tasty taco's. Great concept!", "locationName": "Bar Br\u00e5", "coordinate": {"lat": "52.3616546", "lng": "4.864847"}, "locationId": "437120465", "createdTime": 1444853004}
{"food": ["waffle", "nutella", "chocolate"], "text": "That #waffle though ... #amsterdam #nutella #icebakery #nutellaicebakery #instafood #dessert #amsterdamfood #emagillinamsterdam #chocolate", "locationName": "Nutella Ice Bakery", "coordinate": {"lat": "None", "lng": "None"}, "locationId": "354829818", "createdTime": 1444853736}
{"food": ["pizza"], "text": "Directamente desde AMSTERDAM .... LA PIZZAAA DOG \ud83d\udca5\ud83d\ude4c\ud83c\udf55\ud83d\udc34\ud83d\udc3d #thecrazyforkpty #forkingaroundpty #foodporn #hotdog #pizza #pizzadog #delicious #tapaarterias #amsterdamfood #internationalcrazyfork \ud83d\udccdAmsterdam, Netherlands", "locationName": "Amsterdam, Netherlands", "coordinate": {"lat": "52.3731", "lng": "4.8922"}, "locationId": "116231", "createdTime": 1445006413}
{"food": ["tapas"], "text": "Best tapas bar in Amsterdam? It is Tapas Bar Catala. Pop a feira,octopus. #amsterdam #pastaconsardeamsterdam #amsterdamfood #amsterdamdining #amsterdamrestaurants", "locationName": "Tapas BAR Catal\u00e0", "coordinate": {"lat": "52.36905", "lng": "4.8888999"}, "locationId": "245814105", "createdTime": 1445164278}
{"food": ["nutella"], "text": "We started at #hello and this happened #foodporn #megacrepe #warm #nutella / #froyo #fresh #strawberries and the extra large #pleasures hihi...#yogenfr\u00fcznl #Amsterdamfood #foodporn #foodilove #foodhallenamsterdam", "locationName": "De Foodhallen", "coordinate": {"lat": "52.36747", "lng": "4.86788"}, "locationId": "297415489", "createdTime": 1445190692}
{"food": ["compote"], "text": "One of the most delicious things I have tried in a long time........who would have thought it would have been #yoghurt from #yoghurtbarn #amsterdam . Fresh low fat yoghurt with mixed berry compote, blueberries and coconut. #YoghurtBarndePijp #depijp #Amsterdamfood #foodtour #amsterdamfoodtour #hungaryhikers #hungrybirds #healthandfitness #naturalfood #rawfood #protein #iamamsterdam #gramthedam #awesomeamsterdam #amsterdamworld #exploreamsterdam #insideamsterdam #blueberries #healthyfood #foodie #localfoodamsterdam #eatamsterdam", "locationName": "Yoghurt Barn de Pijp", "coordinate": {"lat": "52.3545737615", "lng": "4.89353178612"}, "locationId": "251860408", "createdTime": 1445206068}
{"food": ["fajita"], "text": "#foodporn #fajita #amsterdamfood", "locationName": "Matias", "coordinate": {"lat": "52.3637732", "lng": "4.8842266"}, "locationId": "972602049", "createdTime": 1445287084}
{"food": ["salad"], "text": "This #vegan #glutenfree salad bowl from @dignitaamsterdam in #amsterdamzuid might be the best lunch I've ever had! Check my website for this and other healthy hotspots in Amsterdam.", "locationName": "Dignita Amsterdam", "coordinate": {"lat": "52.3518285", "lng": "4.8572732"}, "locationId": "761461930", "createdTime": 1445335735}
{"food": ["sandwich"], "text": "The best sandwich in A'dam? tKuyltje. I'm still dreamin' that roast-beef sandwich...https://m.facebook.com/pages/Broodjeszaak-t-Kuyltje/264050050330535 (w/ @ggpush while waiting for the second one) #bestsandwichever #amsterdamfood", "locationName": "Amsterdam, Netherlands", "coordinate": {"lat": "52.3731", "lng": "4.8922"}, "locationId": "116231", "createdTime": 1445368223}
{"food": ["curry", "thai curry"], "text": "#thai #curry #amsterdamfood #jordaan", "locationName": "Amsterdam, Netherlands", "coordinate": {"lat": "52.3731", "lng": "4.8922"}, "locationId": "116231", "createdTime": 1445551556}
{"food": ["ramen"], "text": "Found my #oneandonly\ud83d\udc8d#ramen#thebest#comfortfood#amstergram#dinner#delicious#instafood#foodlove#amsterdamfood#friday#foodgasm#pork \ud83d\udc3d", "locationName": "Ramen-Ya Amsterdam", "coordinate": {"lat": "52.372055362", "lng": "4.89567813344"}, "locationId": "346372321", "createdTime": 1445636909}
{"food": ["nutella"], "text": "Heaven \ud83d\ude0d #Amsterdam #amsterdamfood #nutella #nutellalove #ferrerorocher", "locationName": "The Collage Hotel", "coordinate": {"lat": "52.3525909628", "lng": "4.88412261232"}, "locationId": "474088395", "createdTime": 1445669002}
{"food": ["salad"], "text": "big autumnal salad on a beautiful day - or nah.  #latergram #salad #sla #amsterdamfood #f52kitchen #feedfeed @feedfeed #food52 #thekitchn #buzzfeast #forkfeed #kitchenbowl #onthetable #foodstyling #lifeandthyme #vscofood #vscocook #cookmagazine #huffposttaste #carouselfood #foodblogfeed @foodblogfeed", "locationName": "SLA Utrechtsestraat", "coordinate": {"lat": "52.3655014", "lng": "4.8974981"}, "locationId": "453940316", "createdTime": 1445772338}
{"food": ["piadina"], "text": "Mamma mia, piadina! Tried out the new Piadini Bar with the bf just now. Mucho delicioso! @piadinabar #fromitalytoamsterdam #piadinabar #amsterdamfood #hotspotamsterdam #italianfood #belissima #eveseason", "locationName": "Stadhouderskade", "coordinate": {"lat": "52.3577125731", "lng": "4.8977693381"}, "locationId": "5969429", "createdTime": 1445772908}
{"food": ["bagel", "hummus"], "text": "Sundays are for going out for lunch. I had a great whole wheat bagel with hummus and grilled vegetables at @garysdeli_amsterdam. Check my website for other healthy lunch spots in Amsterdam!", "locationName": "Gary's Deli", "coordinate": {"lat": "52.3665632", "lng": "4.8693103"}, "locationId": "838468", "createdTime": 1445777128}
{"food": ["bagel", "hummus"], "text": "Sundays are for going out for lunch. I had a great whole wheat bagel with hummus and grilled vegetables at @garysdeli_amsterdam. Check my website for other healthy lunch spots in Amsterdam!", "locationName": "Gary's Deli", "coordinate": {"lat": "52.3665632", "lng": "4.8693103"}, "locationId": "838468", "createdTime": 1445777128}
{"food": ["coffee"], "text": "Go get your dinner @disdinnershop #dis #disdinner #disdinnershop #healthy #food #healthy #herbs #goodfood #foodie #dinner #takeaway #amsterdam #amsterdamfood #delicious #recipes #broodjes #salads #meals #coffee #vscocam", "locationName": "Haarlemmerplein, Amsterdam", "coordinate": {"lat": "52.3174744", "lng": "4.9724862"}, "locationId": "263925404", "createdTime": 1445780593}
{"food": ["pho", "soup", "noodle soup"], "text": "Pho bo (Sliced beef noodle soup) #amsterdam #pastaconsardeamsterdam #amsterdamfood #amsterdamdining", "locationName": "Pho 91", "coordinate": {"lat": "52.3551755828", "lng": "4.89115536286"}, "locationId": "297326188", "createdTime": 1445802946}
{"food": ["tartufo", "piadina"], "text": "Have you tried our Cotto&Tartufo? #amsterdamfood #amsterdamlife #italianfood #fromitalytoamsterdam #tartufo #piadina #piadinaromagnola #foodporn", "locationName": "Amsterdam, Netherlands", "coordinate": {"lat": "52.3731", "lng": "4.8922"}, "locationId": "116231", "createdTime": 1445804132}
{"food": ["falafel", "salad"], "text": "THIS. \ud83d\udc4c\ud83c\udffb\ud83d\ude0b #sla #amsterdam #slaamsterdam #food #instafood #tbt #foodie #falafel #salad #bowl #amsterdamfood #healthy #eat #eathealthy #eatyourgreens #vegetarian #vegan #veganfood #yummy", "locationName": "SLA Zuidas", "coordinate": {"lat": "52.33729", "lng": "4.8712099"}, "locationId": "310092401", "createdTime": 1445808688}
{"food": ["stroopwafel", "chocolate"], "text": "\ud83d\ude0d\ud83d\ude0d\ud83d\ude0d#stroopwafel #tasty #foodporn #chocolate #Amsterdam #amsterdamfood #instafood #foodie #warmfreshlymade #delicious", "locationName": "Albert Cuyp Market", "coordinate": {"lat": "52.356111", "lng": "4.896944"}, "locationId": "215250746", "createdTime": 1445876420}
{"food": ["butter chicken"], "text": "Mouthwatering Chicken Do Piaza and Tandoori Butter Chicken !! #butterchicken #tandoori #chickendopiaza #Indianrestaurantamsterdam #amsterdamfood  For reservation, go to our website or call us at 020-6415340", "locationName": "The Indian Kitchen", "coordinate": {"lat": "52.30522", "lng": "4.86978"}, "locationId": "582986665", "createdTime": 1445881262}
{"food": ["coffee"], "text": "Last week @fabiennedobbe visited @coffeecoconuts with @carolienbrinksma and they didn't regret it! \ud83d\udca5 Fabienne had the buckwheat pancakes and Carolien had the granola bowl. Could be worse right? \ud83d\ude4a What is your favourite healthy hotspot? Let us know where they make the best coffee or the most original salads! \u2728\ud83d\udc40 #modellife #modelfood #model #models #modelslovefood #modelsdoeat #eat #clean #cleanfood #food #goodfood #good #tasty #like #love #lunch #healthylunch #healthy #healthylifestyle #lifestyle #life #cleanfood #follow #followme #followback #follow4follow #hotspot #amsterdam #amsterdamcityguide #amsterdamfood #depijp", "locationName": "C \u2022 T  coffee & coconuts", "coordinate": {"lat": "52.3527045905", "lng": "4.89141715443"}, "locationId": "434784699", "createdTime": 1446048680}
{"food": ["rijsttafel"], "text": "I was introduced to #rijsttafel today. It was amazing. #Amsterdam #amsterdamlife #amsterdamfood #latergram", "locationName": "Kantjil & de Tijger", "coordinate": {"lat": "52.3691653", "lng": "4.8888949"}, "locationId": "213808005", "createdTime": 1446161440}
{"food": ["chocolate"], "text": "#healthy #breakfast #granola #figgs #honey #weathgrass #skinny #yoghurt #foodporn #weekend #amsterdam #foodie #foodgasm #darkchocolate #dark #chocolate #amsterdam #amsterdamfood #food #healthyfood #holland", "locationName": "Amsterdam Oud-West", "coordinate": {"lat": "52.3666666667", "lng": "4.86666666667"}, "locationId": "384868024", "createdTime": 1446274642}
{"food": ["whipped cream"], "text": "Cafe Winkel 43 serves the best APPLEPIE in town \ud83c\udf4f\ud83c\udf4e\ud83c\udf4f make sure you order it with whipped cream! #winkel43 #cafewinkel43 #noordermarket #dutchapplepie #appeltaart #bestapplepie #iamsterdam #hoteldwars #dwarstips #amsterdam #jordaan #igersamsterdam #amsterdamfood", "locationName": "Caf\u00e9 Winkel 43", "coordinate": {"lat": "52.3789987708", "lng": "4.88641616586"}, "locationId": "7965901", "createdTime": 1446718646}
{"food": ["ramen"], "text": "Yummy! #amsterdamfood #ramen", "locationName": "Ramen-Ya Amsterdam", "coordinate": {"lat": "52.372055362", "lng": "4.89567813344"}, "locationId": "346372321", "createdTime": 1446833222}
{"food": ["coffee"], "text": "Oh those cute caf\u00e9s here\ud83d\ude0d  #Pluk#caf\u00e9#Amsterdam#amsterdamfood#cakes#coffee#fika#med#\u00e4lsklingen#freshfood#yummiie @erikssolinus", "locationName": "De 9 Straatjes in Amsterdam", "coordinate": {"lat": "52.3702772626", "lng": "4.88536918106"}, "locationId": "883182", "createdTime": 1446913736}
{"food": ["chocolate"], "text": "#tosti#liteanddark#foodspotting#organic#amsterdam#instafood#spinaze#and#chocolate#pear#foodies#speltbread#foodpics#foodblogger#foodstagram#amsterdamcity#amsterdamfood", "locationName": "LITE/DARK", "coordinate": {"lat": "52.3647386", "lng": "4.8979203042"}, "locationId": "1876461", "createdTime": 1447333754}
{"food": ["chocolate"], "text": "#tosti#liteanddark#foodspotting#organic#amsterdam#instafood#spinaze#and#chocolate#pear#foodies#speltbread#foodpics#foodblogger#foodstagram#amsterdamcity#amsterdamfood", "locationName": "LITE/DARK", "coordinate": {"lat": "52.3647386", "lng": "4.8979203042"}, "locationId": "1876461", "createdTime": 1447333754}
{"food": ["chocolate"], "text": "#tosti#liteanddark#foodspotting#organic#amsterdam#instafood#spinaze#and#chocolate#pear#foodies#speltbread#foodpics#foodblogger#foodstagram#amsterdamcity#amsterdamfood", "locationName": "LITE/DARK", "coordinate": {"lat": "52.3647386", "lng": "4.8979203042"}, "locationId": "1876461", "createdTime": 1447333754}
{"food": ["chocolate"], "text": "#tosti#liteanddark#foodspotting#organic#amsterdam#instafood#spinaze#and#chocolate#pear#foodies#speltbread#foodpics#foodblogger#foodstagram#amsterdamcity#amsterdamfood", "locationName": "LITE/DARK", "coordinate": {"lat": "52.3647386", "lng": "4.8979203042"}, "locationId": "1876461", "createdTime": 1447333754}
{"food": ["chocolate"], "text": "#tosti#liteanddark#foodspotting#organic#amsterdam#instafood#spinaze#and#chocolate#pear#foodies#speltbread#foodpics#foodblogger#foodstagram#amsterdamcity#amsterdamfood", "locationName": "LITE/DARK", "coordinate": {"lat": "52.3647386", "lng": "4.8979203042"}, "locationId": "1876461", "createdTime": 1447333754}
{"food": ["chocolate"], "text": "#tosti#liteanddark#foodspotting#organic#amsterdam#instafood#spinaze#and#chocolate#pear#foodies#speltbread#foodpics#foodblogger#foodstagram#amsterdamcity#amsterdamfood", "locationName": "LITE/DARK", "coordinate": {"lat": "52.3647386", "lng": "4.8979203042"}, "locationId": "1876461", "createdTime": 1447333754}
{"food": ["chocolate"], "text": "#tosti#liteanddark#foodspotting#organic#amsterdam#instafood#spinaze#and#chocolate#pear#foodies#speltbread#foodpics#foodblogger#foodstagram#amsterdamcity#amsterdamfood", "locationName": "LITE/DARK", "coordinate": {"lat": "52.3647386", "lng": "4.8979203042"}, "locationId": "1876461", "createdTime": 1447333754}
{"food": ["chocolate"], "text": "#tosti#liteanddark#foodspotting#organic#amsterdam#instafood#spinaze#and#chocolate#pear#foodies#speltbread#foodpics#foodblogger#foodstagram#amsterdamcity#amsterdamfood", "locationName": "LITE/DARK", "coordinate": {"lat": "52.3647386", "lng": "4.8979203042"}, "locationId": "1876461", "createdTime": 1447333754}
{"food": ["tahini", "salad"], "text": "\ud83c\udfb6 Take me on a Magic carpet ride..... \ud83c\udfb6 Today's box was a culinary journey inspired by a recent trip to Morocco & the desert \ud83c\udf34  A quarter aubergine, slow roasted 'til nice and crispy, then painted with a fresh garlic, lemon & tahini sauce, garnished with chopped mint & sesame seeds | chickpeas marinated with a blend of Moroccan spices, cinnamon heavy, with thinly sliced raw red onion | brown rice laced with parsley, citrus, dill, fresh orange segments, black olives & toasted almonds | A whole roasted & peeled Romano pepper curled up with cashew, date, lemon verbena & basil pesto | pickled red onion & perfectly cubed carrot & butternut salad with chilli & wild cumin dressing | spicy mung bean pate with lots of lemon & the holy trinity -chilli, garlic & ginger.... All garnished with pomegtanate rubies & rose petals... Pheeew that's a tummy full o' happiness \ud83d\ude09  How did you enjoy your #Cropbox today?  Photo by @thefoodieswardrobe  #vegan #lunch #delivery #Amsterdam #vegetarian #amsterdamfood #vegansofig #wholefoods #plantbased #healthy #nutrition #nourish #foodie", "locationName": "Tunnel37", "coordinate": {"lat": "52.38352", "lng": "4.88779"}, "locationId": "601473107", "createdTime": 1447352475}
{"food": ["pie", "apple pie"], "text": "Amsterdam's best pancakes, apple pie, tosti. Link in bio.  #food #amsterdam #travel #vlog", "locationName": "De Foodhallen", "coordinate": {"lat": "52.36747", "lng": "4.86788"}, "locationId": "297415489", "createdTime": 1447507303}
{"food": ["cheeseburger"], "text": "American meals in Amsterdam \ud83d\udc4c  #cheeseburger #burger #fries #frenchfries #amsterdamfood #amsterdam #amsterdamcity #netherlands #food #dinner #foodofinstagram", "locationName": "Amsterdam, Netherlands", "coordinate": {"lat": "52.3731", "lng": "4.8922"}, "locationId": "116231", "createdTime": 1447569346}
{"food": ["hamburger"], "text": "The BF took me to this recently opened burger bar in Amsterdam that has really really good burgers! \"The Burger Bitch\" opened their doors last september and is offering a great variety of good quality burgers with the best premium beef! \ud83d\udc4c\ud83d\udc4c\ud83d\udc4c in my opinion, one of the best in Amsterdam! \ud83d\ude09 This burger was \"The Original Beauty w/bacon\" and Chilli Cheese fries on the side! \ud83c\udf74\ud83c\udf54 Check them out! #burgerbitch #burgerbitchamsterdam #burger #burgeramsterdam #chillicheesefries #hamburger #burgerbar #amsterdamfood #amsterdamarena #foodamsterdam #burgerporn #burgerpic #foodporn #foodpic #foodgasm #americanburger #foodie #foodblog #foodblogger #nomnomnom #igersamsterdam #dutchigers #instagood #potd #tippedbylea", "locationName": "Burger Bitch", "coordinate": {"lat": "52.313179", "lng": "4.94245"}, "locationId": "904383866", "createdTime": 1447576556}
{"food": ["coffee"], "text": "CT coffee & coconuts #coffeeandcoconuts  #amsterdamfood #depijp", "locationName": "C \u2022 T  coffee & coconuts", "coordinate": {"lat": "52.3527045905", "lng": "4.89141715443"}, "locationId": "434784699", "createdTime": 1447578008}
{"food": ["caramel", "waffle"], "text": "\ud83c\uddf3\ud83c\uddf1 One of my favourite cookies since age 5 \ud83d\udc67\ud83c\udffd are the STROOPWAFFLES (Dutch Caramel Syrup Waffle Cookies\ud83c\udf6a). \u2800\u2800\u2800\u2800\u2800\u2800\u2800\u2800\u2800\u2800\u2800\u2800\u2800\u2800\u2800\u2800\u2800\u2800\u2800\u2800\u2800\u2800\u2800\u2800\u2800\u2800\u2800\u2800\u2800 #BcnMetropole #TodayInAmsterdam #TomorrowIDK #amsterdam #amsterdamfood", "locationName": "Amsterdam, Netherlands", "coordinate": {"lat": "52.3731", "lng": "4.8922"}, "locationId": "116231", "createdTime": 1447796980}
{"food": ["nasi goreng"], "text": "Nasi Goreng - Traditional Indonesian stir fried rice with kecap manis (sweet soy sauce), shallot, garlic, tamarind, and chilli from @restaurantkantjil on Spuistraat in Amsterdamn, Netherlands. #HDScoobySnacks #food #instafood #Boston #BostonFood #foodie #BostonFoodie #foodporn #IndonesianFood #Indonesia #Amsterdam #AmsterdamFood #Netherlands #KantjilEnDeTijger #KantjilDeTijger #NasiGoreng #friedrice #rice", "locationName": "Kantjil & de Tijger", "coordinate": {"lat": "52.3691653", "lng": "4.8888949"}, "locationId": "213808005", "createdTime": 1447885287}
{"food": ["sandwich"], "text": "Flex working and me might work out just yet #pastrami #mustardmayo #sandwich #amsterdamfood #amsterdam #favouritesandwich", "locationName": "C \u2022 T  coffee & coconuts", "coordinate": {"lat": "52.3527045905", "lng": "4.89141715443"}, "locationId": "434784699", "createdTime": 1448048235}
{"food": ["hummus"], "text": "Hummus Bistro d&a #hummusbistro #amsterdamfood", "locationName": "Hummus bistro d&a", "coordinate": {"lat": "52.3784676", "lng": "4.8826461"}, "locationId": "783454344", "createdTime": 1448070647}
{"food": ["cheeseburger"], "text": "All the elements of animal goodness! Longing back to a Smokin' Barrels feast in Amsterdam with T-bone steak, Grilled chicken, lobster and the Royal cheese burger to share! Weekend plans in the making! #tbone #fries #frenchfries #bearnaise #burger #cheeseburger #burgers #lobster #grilled #chicken #bbq #barbeque #beer #lager #smokinbarrels #amsterdam #amsterdamfood #eeeeeeats #instafood #foodie #food", "locationName": "Smokin' Barrels", "coordinate": {"lat": "52.35691", "lng": "4.91783"}, "locationId": "256256837", "createdTime": 1448095648}
{"food": ["curry"], "text": "Sha momo;juicy beef dumplings with ginger-garlic curry dip. I ordered another one,so delicious. #tibetan #pastaconsardeamsterdam #amsterdam #amsterdamdining #amsterdamfood #amsterdamrestaurants", "locationName": "Norling Tibetaans Restaurant Amsterdam", "coordinate": {"lat": "None", "lng": "None"}, "locationId": "264054381", "createdTime": 1448107797}
{"food": ["curry"], "text": "Lug sha tse,lamb curry is perfect to me. #amsterdam #pastaconsardeamsterdam #amsterdamrestaurants #amsterdamdining #amsterdamfood", "locationName": "Norling Tibetaans Restaurant Amsterdam", "coordinate": {"lat": "None", "lng": "None"}, "locationId": "264054381", "createdTime": 1448108251}
{"food": ["eggs benedict"], "text": "Eggs Benedict lunch. Omdat zaterdag daar zo'n goeie dag voor is. #amsterdamlife #stek #amsterdamoost #amsterdamfood #foodie", "locationName": "STEK", "coordinate": {"lat": "52.35628", "lng": "4.91143"}, "locationId": "327772973", "createdTime": 1448111571}
{"food": ["stroopwafel"], "text": "Albert Cuypmarkt #stroopwafel  #albertcuyp #amsterdamfood", "locationName": "Albert Cuypmarkt Amsterdam", "coordinate": {"lat": "52.3553", "lng": "4.89204"}, "locationId": "961687832", "createdTime": 1448118035}
{"food": ["pho"], "text": "Ordered: Ph\u00f4 91 Ordered at Pho 91, Amsterdam \ud83c\udf74 After my spring rolls I had their signature dish. This ph\u00f4 was enriched with thin sliced beef, brisket, beef balls and chicken. As a meat lover I could definitely appreciate that \ud83d\ude01\ud83d\ude01 #food #foodie #foodgasm #foodporn #iwantthis #delicious #foodstagram #foodpics #foodpic #foodlovers #yum #yummy #beautiful #forkyeah #amsterdam #albertcuyp #amsterdamfood #vietnamese #vietfood #vietfoodporn #020 #chicken #meat #beef #brisket", "locationName": "Pho 91", "coordinate": {"lat": "52.3551755828", "lng": "4.89115536286"}, "locationId": "297326188", "createdTime": 1448180691}
{"food": ["french fries"], "text": "Why yes, I would like a bottle of wine with my eight orders of French fries #frenchfries #chips #frites #healthkick #eatingamsterdam #parhasard #amsterdamfood #depijp #nofilter", "locationName": "Par Hasard", "coordinate": {"lat": "52.353157", "lng": "4.8924646"}, "locationId": "817435396", "createdTime": 1448407376}
{"food": ["falafel"], "text": "Vegan meal @meatless_district at the @foodfestivalamsterdam: roasted cauliflower, #pumpkinhummus and #falafel.  #meatlessdistrict #mdamsterdam #foodfestivalamsterdam", "locationName": "Food Festival Amsterdam", "coordinate": {"lat": "None", "lng": "None"}, "locationId": "1021124651", "createdTime": 1448819886}
{"food": ["poffertjes"], "text": "#Hello, it's me. I've been wondering if after all these years you'd like to eat. #poffertjes", "locationName": "De Carrousel", "coordinate": {"lat": "52.3589401", "lng": "4.8917999"}, "locationId": "3753537", "createdTime": 1448823809}
{"food": ["falafel"], "text": "Amsterdam's best kept falafel secret! Check de link in m'n bio \ud83c\udf62\ud83c\udf88\ud83d\ude0b #amsterdamstreetfood #homemade #falafel #amsterdamfood #javastraat #amsterdamoost #mooncakestreetfood", "locationName": "Javastraat", "coordinate": {"lat": "52.3636884736", "lng": "4.93327632641"}, "locationId": "242472345", "createdTime": 1449073961}
{"food": ["salad"], "text": "Well this was just lovely! Quinoa salad with goatcheese, cashew and fig\ud83d\udc95 Thanks REE7 for this delicious lunch with @juliusover \ud83d\udc4c\ud83c\udffb #foodie #food #foodporn #healthyfood #instafood #foodphotography #healthy #healthyfood #healthylife #yogi #yogifood #yoga #instapic #amsterdam #amsterdamfood #lunch #REE7 #ninestreets #fit #fitdutchies #fitgirl #hotspot", "locationName": "Ree7", "coordinate": {"lat": "52.3722406", "lng": "4.8841471"}, "locationId": "266645754", "createdTime": 1449142319}
{"food": ["salad"], "text": "Well this was just lovely! Quinoa salad with goatcheese, cashew and fig\ud83d\udc95 Thanks REE7 for this delicious lunch with @juliusover \ud83d\udc4c\ud83c\udffb #foodie #food #foodporn #healthyfood #instafood #foodphotography #healthy #healthyfood #healthylife #yogi #yogifood #yoga #instapic #amsterdam #amsterdamfood #lunch #REE7 #ninestreets #fit #fitdutchies #fitgirl #hotspot", "locationName": "Ree7", "coordinate": {"lat": "52.3722406", "lng": "4.8841471"}, "locationId": "266645754", "createdTime": 1449142319}
{"food": ["hummus", "tzatziki"], "text": "A\ud83c\udf37M\ud83c\udf37S\ud83c\udf37  #cauliflower #grilled #hummus #falafelwithhummus #tzatziki #harissa #flowers #amsterdamfood #healthy #healthyfood \ud83d\udd1d", "locationName": "Hummus bistro d&a", "coordinate": {"lat": "52.3784676", "lng": "4.8826461"}, "locationId": "783454344", "createdTime": 1449349306}
{"food": ["hummus", "tzatziki"], "text": "A\ud83c\udf37M\ud83c\udf37S\ud83c\udf37  #cauliflower #grilled #hummus #falafelwithhummus #tzatziki #harissa #flowers #amsterdamfood #healthy #healthyfood \ud83d\udd1d", "locationName": "Hummus bistro d&a", "coordinate": {"lat": "52.3784676", "lng": "4.8826461"}, "locationId": "783454344", "createdTime": 1449349306}
{"food": ["tortilla"], "text": "Ben je je havermoutprutje met overpricete bessen en zaden uit verre valleien even (of voor altijd) zat? Check de link in m'n bio voor de beste ontbijttip so far! #amsterdamfood #tortilla #bastilla #moroccanfood #avocadoshake #havermout #amsterdamwest #staatsliedenbuurt #westerpark #mocroflavour #toomanyhashtags #mooncakestreetfood", "locationName": "Staatsliedenbuurt", "coordinate": {"lat": "52.3825", "lng": "4.8731"}, "locationId": "237856778", "createdTime": 1449394721}
{"food": ["brioche"], "text": "My favourite patisserie makes really delicious #brioche #amsterdam #pastaconsardeamsterdam #amsterdamfood", "locationName": "MY LITTLE PATISSERIE", "coordinate": {"lat": "52.354706572", "lng": "4.893661325"}, "locationId": "502303796", "createdTime": 1449410988}
{"food": ["cheesecake", "cake"], "text": "My favourite place in Amsterdam (in \u2764 with the pepernoten cheesecake) Our first stop in January, @alekss4e \ud83d\ude18 #amsterdam #iamsterdam #delaatsekruimel #sweets #cake #cosy #amsterdamfood #cheesecake #delicious #christmas", "locationName": "De Laatste Kruimel", "coordinate": {"lat": "52.36926", "lng": "4.89298"}, "locationId": "7020583", "createdTime": 1449420634}
{"food": ["hummus"], "text": "This lovely eatery is making one of the best hummus that I have ever had #pastaconsardeamsterdam #amsterdam #amsterdamdining #amsterdamfood", "locationName": "Sir Hummus", "coordinate": {"lat": "52.35177", "lng": "4.89441"}, "locationId": "578797861", "createdTime": 1449427476}
{"food": ["hummus", "stew"], "text": "Delicious #hummus with beef stew,what else? #pastaconsardeamsterdam #amsterdam #amsterdamdining #amsterdamfood", "locationName": "Sir Hummus", "coordinate": {"lat": "52.35177", "lng": "4.89441"}, "locationId": "578797861", "createdTime": 1449427588}
{"food": ["hummus", "stew"], "text": "Delicious #hummus with beef stew,what else? #pastaconsardeamsterdam #amsterdam #amsterdamdining #amsterdamfood", "locationName": "Sir Hummus", "coordinate": {"lat": "52.35177", "lng": "4.89441"}, "locationId": "578797861", "createdTime": 1449427588}
{"food": ["brigadeiro"], "text": "WE ARE HAPPY TO BE HERE ! You find the BRIGADEIROS (Sweet Bob) also at the Coffeeshop Easy Times Amsterdam #feelthecreamy Boa Noite !!! :) www.sweetbob.nl #amsterdam #amsterdinho #brigadeiro #sweetbobamsterdam #sweetbob #tastyandcreamy #boanoite #easytimescoffeeshop #amsterdamcity #amsterdamfood #foodamsterdam #feitocomamor #loveit #love", "locationName": "Easy Times Coffeeshop Amsterdam", "coordinate": {"lat": "52.3644411694", "lng": "4.88521383128"}, "locationId": "2740572", "createdTime": 1449533747}
{"food": ["nutella"], "text": "Lempeng ada strawberries and nutella! #pancakedutch #amsterdamfood", "locationName": "The Dutch Pancake House", "coordinate": {"lat": "52.3671200063", "lng": "4.89013610488"}, "locationId": "2597593", "createdTime": 1449654624}
{"food": ["nasi lemak"], "text": "Sedap la tapi sedap lagi nasi lemak kat malaysia... Syukur la nak! #amsterdamfood  #visitiamsterdam", "locationName": "Restaurant Crystal", "coordinate": {"lat": "52.3647650233", "lng": "4.8840687999"}, "locationId": "243843473", "createdTime": 1449680739}
{"food": ["soup", "curry", "pea soup"], "text": "Snert: Dutch pea soup, Smoked Sausages & Curry.. \ud83c\udf74\ud83c\udf75\ud83c\uddf1\ud83c\uddfa #lzamsterdam #librijeszusje #amsterdam #snert #amsterdamfood #amusebouche #finedining", "locationName": "Librije's Zusje", "coordinate": {"lat": "52.197956", "lng": "4.896558"}, "locationId": "867922978", "createdTime": 1449942835}
{"food": ["bread"], "text": "This one is Turkish food from the central part of Turkey originated in Konya and one of my favourite. Etli Ekmek or \"bread with meat\" has very thinner and crispy base and topping is not spicy mostly based on thinly chopped green pepper,tomato and minced meat. My favourite is \"kusbasili\" which means thinly chopped lamb fillet instead of minced meat. Havzan is a small,clean restaurant offering very friendly service. Soups are also nice. Just give it a try! #amsterdam #pastaconsardeamsterdam #amsterdamfood", "locationName": "Havzan Restaurant - Etliekmek", "coordinate": {"lat": "52.3799885092", "lng": "4.82974201201"}, "locationId": "269795984", "createdTime": 1449946818}
{"food": ["bread"], "text": "Kusbasili etli ekmek \"bread with thinly chopped lamb fillet\" #amsterdam #pastaconsardeamsterdam #amsterdamfood", "locationName": "Havzan Restaurant - Etliekmek", "coordinate": {"lat": "52.3799885092", "lng": "4.82974201201"}, "locationId": "269795984", "createdTime": 1449947603}
{"food": ["chocolate"], "text": "Starters, mains and desserts are great with chocolate. :D #chocolate #chocolatelover #loveforfood #alwaysthinkingabouteating #lovetoeat #thebestpeople #friends #love #quote #jobrand #weekend #monday #dinner #morning #startup #restaurants #food #amsterdamfood #eten #chocoladelover #etenisleven #pimmr", "locationName": "Pimmr", "coordinate": {"lat": "52.33652", "lng": "4.88544"}, "locationId": "1007848444", "createdTime": 1450083211}
{"food": ["brigadeiro"], "text": "That night I dreamed of you ... Have a beautiful day ! \ud83d\ude09\ud83c\udf39 #feelthecreamy #amsterdam #brigadeiro #sweetbob #sweetbobamsterdam #tastyandcreamy #amsterdamcity #sweetbobfamily #loveit#sweetbob.nl #amsterdamlife #amsterdamfood #beautifulday #dreams #mooie #bomdia", "locationName": "Amsterdam-Centrum", "coordinate": {"lat": "52.373056", "lng": "4.892222"}, "locationId": "240641423", "createdTime": 1450094402}
{"food": ["tapas", "pizza"], "text": "Great tapas food in #amsterdamoost #amsterdam #amsterdamfood #tapas #pizza #michel-inn", "locationName": "Michel-Inn", "coordinate": {"lat": "52.3553414", "lng": "4.9229338"}, "locationId": "46934959", "createdTime": 1450100624}
{"food": ["brigadeiro"], "text": "Goedemorgen ! Bom Dia ! SWEET BOB AMSTERDAM  Feel the creamy... \ud83c\uddf3\ud83c\uddf1 www.sweetbob.nl \ud83d\ude0d #feelthecreamy #amsterdam #brigadeiro #sweetbob #sweetbobamsterdam #tastyandcreamy #amsterdamcity #sweetbobfamily #loveit#sweetbob.nl #amsterdamlife #amsterdamfood #beautifulday #dreams #mooie #bomdia", "locationName": "Amsterdam-Centrum", "coordinate": {"lat": "52.373056", "lng": "4.892222"}, "locationId": "240641423", "createdTime": 1450180865}
{"food": ["pizza"], "text": "And that's why sharing is caring \ud83d\ude05! #Pizza #Pizzalovers #musclefish #Bacon #food #amsterdam #amsterdamfood #italian", "locationName": "De Houtoven", "coordinate": {"lat": "52.22134", "lng": "5.17868"}, "locationId": "314442836", "createdTime": 1450207368}
{"food": ["soup"], "text": "Tom kha gai soup it was tonight.. I used a recipe from smallfootprintfamily.com and I Loved it! \ud83c\udf5c #asianstyle #soup #tomkhagai #instafoodie #amsterdamfood #thaifood #laosfood #latedinner #instadinner #amsterdam #foodie", "locationName": "Amsterdam, Netherlands", "coordinate": {"lat": "52.3731", "lng": "4.8922"},